id,name,sector,location,size,latitude,longitude,metric,intercept,slope,trend
100654,Alabama A & M University,public,City,"5,000 - 9,999",34.783368,-86.568502,simpson,0.0447037037037036,0.011,Increasing
100663,University of Alabama at Birmingham,public,City,"20,000 +",33.505697,-86.799345,simpson,0.4691481481481478,0.01,Increasing
100690,Amridge University,private_nonprofit,City,"< 1,000",32.362609,-86.17401,simpson,0.5494814814814812,-0.003,Unchanged
100706,University of Alabama in Huntsville,public,City,"5,000 - 9,999",34.724557,-86.640449,simpson,0.3404814814814814,0.004,Unchanged
100724,Alabama State University,public,City,"1,000 - 4,999",32.364317,-86.295677,simpson,0.0319259259259259,0.008,Unchanged
100751,The University of Alabama,public,City,"20,000 +",33.211875,-87.545978,simpson,0.236037037037037,0.01,Increasing
100812,Athens State University,public,Town,"1,000 - 4,999",34.806793,-86.964698,simpson,0.2607407407407406,0.006,Unchanged
100830,Auburn University at Montgomery,public,City,"5,000 - 9,999",32.36736,-86.177544,simpson,0.404111111111111,0.012,Increasing
100858,Auburn University,public,City,"20,000 +",32.599378,-85.488258,simpson,0.1887407407407408,0.007,Unchanged
100937,Birmingham-Southern College,private_nonprofit,City,"1,000 - 4,999",33.513774,-86.850552,simpson,0.2201481481481479,0.012,Increasing
101189,Faulkner University,private_nonprofit,City,"1,000 - 4,999",32.384181,-86.21641,simpson,0.5167407407407406,0.003,Unchanged
101435,Huntingdon College,private_nonprofit,City,"< 1,000",32.351034,-86.284366,simpson,0.3514444444444444,0.018,Increasing
101453,Heritage Christian University,private_nonprofit,City,"< 1,000",34.856153,-87.663051,simpson,0.1433703703703704,0.021,Increasing
101480,Jacksonville State University,public,Not_Reported,"5,000 - 9,999",33.822938,-85.765321,simpson,0.4308518518518517,-0.01,Decreasing
101541,Judson College,private_nonprofit,Rural,"< 1,000",32.629253,-87.315206,simpson,0.2207407407407408,0.011,Increasing
101587,University of West Alabama,public,Rural,"5,000 - 9,999",32.588132,-88.186329,simpson,0.5102222222222222,0.003,Unchanged
101675,Miles College,private_nonprofit,Not_Reported,"1,000 - 4,999",33.482442,-86.908751,simpson,0.0774814814814814,-0.002,Unchanged
101693,University of Mobile,private_nonprofit,Rural,"1,000 - 4,999",30.793247,-88.128934,simpson,0.4458888888888888,-0.002,Unchanged
101709,University of Montevallo,public,Not_Reported,"1,000 - 4,999",33.10625,-86.865099,simpson,0.2616666666666665,0.017,Increasing
101879,University of North Alabama,public,City,"5,000 - 9,999",34.806738,-87.681361,simpson,0.2524814814814813,0.008,Unchanged
101912,Oakwood University,private_nonprofit,City,"1,000 - 4,999",34.756344,-86.652705,simpson,0.0377037037037036,0.007,Unchanged
102049,Samford University,private_nonprofit,Not_Reported,"5,000 - 9,999",33.464128,-86.791799,simpson,0.1714074074074072,0.01,Increasing
102094,University of South Alabama,public,City,"10,000 - 19,999",30.696033,-88.178711,simpson,0.3664444444444445,0.013,Increasing
102234,Spring Hill College,private_nonprofit,City,"1,000 - 4,999",30.694751,-88.138199,simpson,0.4067037037037036,-0.0,Unchanged
102270,Stillman College,private_nonprofit,City,"< 1,000",33.200006,-87.585278,simpson,0.131148148148148,0.004,Unchanged
102298,Talladega College,private_nonprofit,Town,"1,000 - 4,999",33.433472,-86.112704,simpson,0.1037407407407407,0.007,Unchanged
102368,Troy University,public,Town,"10,000 - 19,999",31.800672,-85.957094,simpson,0.5315555555555554,-0.002,Unchanged
102377,Tuskegee University,private_nonprofit,Town,"1,000 - 4,999",32.4309,-85.708492,simpson,-0.0177777777777777,0.007,Unchanged
102395,United States Sports Academy,private_nonprofit,City,"< 1,000",30.639329,-87.91163,simpson,0.6014814814814816,-0.014,Decreasing
102553,University of Alaska Anchorage,public,City,"10,000 - 19,999",61.190163,-149.82619,simpson,0.4271851851851848,0.014,Increasing
102580,Alaska Bible College,private_nonprofit,Town,"< 1,000",61.598553,-149.111972,simpson,0.0218518518518518,0.017,Increasing
102614,University of Alaska Fairbanks,public,Not_Reported,"5,000 - 9,999",64.85756,-147.823146,simpson,0.3715555555555554,0.013,Increasing
102632,University of Alaska Southeast,public,Town,"1,000 - 4,999",58.384846,-134.638255,simpson,0.3299259259259258,0.019,Increasing
102669,Alaska Pacific University,private_nonprofit,City,"< 1,000",61.190968,-149.804168,simpson,0.3943333333333332,0.02,Increasing
104151,Arizona State University Campus Immersion,public,City,"20,000 +",33.417721,-111.934383,simpson,0.441111111111111,0.016,Increasing
104179,University of Arizona,public,City,"20,000 +",32.232672,-110.950815,simpson,0.4810740740740736,0.013,Increasing
104188,Southwest University of Visual Arts-Tucson,private_nonprofit,City,"< 1,000",32.221702,-110.970838,simpson,0.5529259259259258,-0.0,Unchanged
104586,Embry-Riddle Aeronautical University-Prescott,private_nonprofit,Rural,"1,000 - 4,999",34.616766,-112.449741,simpson,0.3364814814814815,0.016,Increasing
105330,Northern Arizona University,public,City,"20,000 +",35.188449,-111.653724,simpson,0.3973333333333333,0.016,Increasing
105367,Ottawa University-Phoenix,private_nonprofit,City,"1,000 - 4,999",33.572173,-112.113001,simpson,0.5190740740740741,0.004,Unchanged
105589,Prescott College,private_nonprofit,City,"< 1,000",34.5452,-112.477185,simpson,0.2342962962962963,0.017,Increasing
105899,Arizona Christian University,private_nonprofit,Not_Reported,"< 1,000",33.622952,-112.181776,simpson,0.0383703703703702,0.061,Increasing
106245,University of Arkansas at Little Rock,public,City,"5,000 - 9,999",34.723254,-92.339778,simpson,0.4509629629629627,0.014,Increasing
106263,University of Arkansas for Medical Sciences,public,City,"1,000 - 4,999",34.749048,-92.320046,simpson,0.2755555555555555,0.011,Increasing
106342,Lyon College,private_nonprofit,Town,"< 1,000",35.777619,-91.625354,simpson,0.1676666666666666,0.019,Increasing
106397,University of Arkansas,public,City,"20,000 +",36.070009,-94.176981,simpson,0.2548148148148147,0.01,Increasing
106412,University of Arkansas at Pine Bluff,public,City,"1,000 - 4,999",34.244031,-92.018683,simpson,0.0887037037037036,0.009,Unchanged
106458,Arkansas State University,public,City,"10,000 - 19,999",35.842388,-90.679988,simpson,0.3084074074074073,-0.001,Unchanged
106704,University of Central Arkansas,public,City,"10,000 - 19,999",35.077945,-92.457672,simpson,0.2846666666666665,0.018,Increasing
106713,Central Baptist College,private_nonprofit,City,"< 1,000",35.083838,-92.445021,simpson,0.3423703703703702,0.004,Unchanged
106810,Crowley's Ridge College,private_nonprofit,Rural,"< 1,000",36.064845,-90.584395,simpson,0.2607876712328765,-0.022,Decreasing
107044,Harding University,private_nonprofit,Town,"1,000 - 4,999",35.247386,-91.726143,simpson,0.1370370370370369,0.007,Unchanged
107071,Henderson State University,public,Town,"1,000 - 4,999",34.128155,-93.059703,simpson,0.3871481481481481,0.006,Unchanged
107080,Hendrix College,private_nonprofit,City,"1,000 - 4,999",35.101565,-92.443256,simpson,0.1903333333333331,0.017,Increasing
107141,John Brown University,private_nonprofit,Town,"1,000 - 4,999",36.189812,-94.560283,simpson,0.1957777777777777,0.009,Unchanged
107512,Ouachita Baptist University,private_nonprofit,Town,"1,000 - 4,999",34.126093,-93.052471,simpson,0.128148148148148,0.013,Increasing
107558,University of the Ozarks,private_nonprofit,Town,"< 1,000",35.476278,-93.467221,simpson,0.1032592592592592,0.037,Increasing
107600,Philander Smith College,private_nonprofit,City,"< 1,000",34.737131,-92.283015,simpson,0.0502222222222221,0.003,Unchanged
107877,Williams Baptist University,private_nonprofit,Rural,"< 1,000",36.125676,-90.940277,simpson,-0.0185185185185185,0.031,Increasing
107983,Southern Arkansas University Main Campus,public,Town,"1,000 - 4,999",33.291618,-93.235922,simpson,0.3916666666666665,0.007,Unchanged
108092,University of Arkansas-Fort Smith,public,City,"5,000 - 9,999",35.384184,-94.373729,simpson,0.3104814814814814,0.019,Increasing
109651,Art Center College of Design,private_nonprofit,City,"1,000 - 4,999",34.169031,-118.185102,simpson,0.6103333333333332,0.007,Unchanged
109785,Azusa Pacific University,private_nonprofit,Not_Reported,"5,000 - 9,999",34.130047,-117.888375,simpson,0.50637037037037,0.022,Increasing
110060,Bethesda University,private_nonprofit,City,"< 1,000",33.842295,-117.941323,simpson,0.0275925925925925,0.068,Increasing
110097,Biola University,private_nonprofit,Not_Reported,"5,000 - 9,999",33.906203,-118.014374,simpson,0.4649629629629627,0.022,Increasing
110316,California Institute of Integral Studies,private_nonprofit,City,"1,000 - 4,999",37.774924,-122.416102,simpson,0.6240370370370371,0.001,Unchanged
110361,California Baptist University,private_nonprofit,City,"10,000 - 19,999",33.929321,-117.425619,simpson,0.5178148148148146,0.016,Increasing
110370,California College of the Arts,private_nonprofit,City,"1,000 - 4,999",37.767485,-122.399451,simpson,0.5597777777777777,0.017,Increasing
110404,California Institute of Technology,private_nonprofit,City,"1,000 - 4,999",34.137349,-118.125878,simpson,0.5814444444444444,0.008,Unchanged
110413,California Lutheran University,private_nonprofit,City,"1,000 - 4,999",34.224566,-118.878924,simpson,0.5127777777777777,0.013,Increasing
110422,California Polytechnic State University-San Luis Obispo,public,Not_Reported,"20,000 +",35.299513,-120.657311,simpson,0.422222222222222,0.017,Increasing
110486,California State University-Bakersfield,public,City,"10,000 - 19,999",35.350005,-119.104711,simpson,0.6706296296296297,-0.008,Unchanged
110495,California State University-Stanislaus,public,Not_Reported,"10,000 - 19,999",37.52577,-120.852511,simpson,0.6690370370370369,-0.004,Unchanged
110510,California State University-San Bernardino,public,City,"10,000 - 19,999",34.182622,-117.323801,simpson,0.7178888888888885,-0.023,Decreasing
110529,California State Polytechnic University-Pomona,public,Not_Reported,"20,000 +",34.057912,-117.821476,simpson,0.7197037037037033,-0.004,Unchanged
110538,California State University-Chico,public,City,"10,000 - 19,999",39.729712,-121.844859,simpson,0.380740740740741,0.026,Increasing
110547,California State University-Dominguez Hills,public,City,"10,000 - 19,999",33.864766,-118.255917,simpson,0.7427407407407404,-0.02,Decreasing
110556,California State University-Fresno,public,City,"20,000 +",36.811154,-119.744569,simpson,0.7004444444444442,-0.009,Decreasing
110565,California State University-Fullerton,public,Not_Reported,"20,000 +",33.881506,-117.885446,simpson,0.7038148148148149,-0.002,Unchanged
110574,California State University-East Bay,public,Not_Reported,"10,000 - 19,999",37.657694,-122.054135,simpson,0.7459259259259259,0.001,Unchanged
110583,California State University-Long Beach,public,City,"20,000 +",33.782818,-118.11204,simpson,0.7350000000000001,-0.005,Unchanged
110592,California State University-Los Angeles,public,City,"20,000 +",34.066927,-118.168965,simpson,0.7120370370370368,-0.023,Decreasing
110608,California State University-Northridge,public,City,"20,000 +",34.240126,-118.529319,simpson,0.7059629629629629,-0.006,Unchanged
110617,California State University-Sacramento,public,City,"20,000 +",38.559415,-121.423549,simpson,0.6648518518518519,0.008,Unchanged
110635,University of California-Berkeley,public,City,"20,000 +",37.871918,-122.260463,simpson,0.640074074074074,0.006,Unchanged
110644,University of California-Davis,public,Not_Reported,"20,000 +",38.539667,-121.749567,simpson,0.6376666666666667,0.009,Unchanged
110653,University of California-Irvine,public,City,"20,000 +",33.648434,-117.841248,simpson,0.5910370370370369,0.01,Increasing
110662,University of California-Los Angeles,public,City,"20,000 +",34.07178,-118.442179,simpson,0.6531481481481484,0.008,Unchanged
110671,University of California-Riverside,public,City,"20,000 +",33.97246,-117.32741,simpson,0.7042962962962962,-0.003,Unchanged
110680,University of California-San Diego,public,City,"20,000 +",32.877749,-117.235866,simpson,0.6102222222222223,0.008,Unchanged
110705,University of California-Santa Barbara,public,Not_Reported,"20,000 +",34.416297,-119.846426,simpson,0.6024814814814816,0.013,Increasing
110714,University of California-Santa Cruz,public,City,"10,000 - 19,999",36.995584,-122.058801,simpson,0.627074074074074,0.01,Increasing
110918,California Christian College,private_nonprofit,City,"< 1,000",36.749366,-119.711123,simpson,0.4039513677811553,-0.032,Decreasing
111081,California Institute of the Arts,private_nonprofit,Not_Reported,"1,000 - 4,999",34.39327,-118.566837,simpson,0.5515925925925924,0.011,Increasing
111188,California State University Maritime Academy,public,City,"< 1,000",38.069061,-122.231551,simpson,0.3755185185185185,0.028,Increasing
111948,Chapman University,private_nonprofit,City,"5,000 - 9,999",33.79302,-117.852518,simpson,0.4272222222222219,0.017,Increasing
111966,Charles R Drew University of Medicine and Science,private_nonprofit,Not_Reported,"< 1,000",33.925658,-118.242791,simpson,0.2703333333333332,0.027,Increasing
112075,Concordia University-Irvine,private_nonprofit,City,"1,000 - 4,999",33.653665,-117.812305,simpson,0.4137037037037034,0.024,Increasing
112084,San Diego Christian College,private_nonprofit,Not_Reported,"< 1,000",32.842404,-116.978112,simpson,0.5315925925925921,0.016,Increasing
112260,Claremont McKenna College,private_nonprofit,Not_Reported,"1,000 - 4,999",34.102154,-117.711188,simpson,0.4741481481481481,0.02,Increasing
112570,Columbia College Hollywood,private_nonprofit,City,"< 1,000",34.17972,-118.538793,simpson,0.5447777777777777,0.007,Unchanged
113698,Dominican University of California,private_nonprofit,City,"1,000 - 4,999",37.981279,-122.512051,simpson,0.6832962962962961,0.005,Unchanged
114813,Fresno Pacific University,private_nonprofit,City,"1,000 - 4,999",36.726831,-119.735199,simpson,0.5945185185185184,0.001,Unchanged
115083,Golden Gate University-San Francisco,private_nonprofit,City,"1,000 - 4,999",37.789374,-122.398969,simpson,0.680148148148148,0.007,Unchanged
115409,Harvey Mudd College,private_nonprofit,Not_Reported,"< 1,000",34.106515,-117.709837,simpson,0.431037037037037,0.03,Increasing
115728,Holy Names University,private_nonprofit,City,"1,000 - 4,999",37.802276,-122.187804,simpson,0.7852222222222222,-0.007,Unchanged
115755,Humboldt State University,public,Town,"5,000 - 9,999",40.877481,-124.078293,simpson,0.4426296296296297,0.021,Increasing
115773,Humphreys University-Stockton and Modesto Campuses,private_nonprofit,City,"< 1,000",38.011489,-121.316918,simpson,0.727111111111111,-0.007,Unchanged
116712,John F. Kennedy University,private_nonprofit,Not_Reported,"1,000 - 4,999",37.956616,-122.054761,simpson,0.6504444444444438,0.006,Unchanged
116846,American Jewish University,private_nonprofit,City,"< 1,000",34.128153,-118.471706,simpson,0.1488518518518517,0.011,Increasing
117104,Life Pacific University,private_nonprofit,Not_Reported,"< 1,000",34.098705,-117.829388,simpson,0.3208518518518516,0.035,Increasing
117140,University of La Verne,private_nonprofit,Not_Reported,"5,000 - 9,999",34.100855,-117.773262,simpson,0.639518518518518,-0.004,Unchanged
117168,Laguna College of Art and Design,private_nonprofit,Rural,"< 1,000",33.561448,-117.772564,simpson,0.4954074074074072,0.018,Increasing
117557,Lincoln University,private_nonprofit,City,"< 1,000",37.804788,-122.269745,simpson,0.4498518518518515,0.008,Unchanged
117575,Southern California Seminary,private_nonprofit,Not_Reported,"< 1,000",32.799614,-116.905461,simpson,0.6172222222222219,-0.013,Decreasing
117627,La Sierra University,private_nonprofit,City,"1,000 - 4,999",33.910704,-117.500054,simpson,0.7779629629629627,-0.012,Decreasing
117636,Loma Linda University,private_nonprofit,Not_Reported,"1,000 - 4,999",34.051241,-117.260605,simpson,0.6864444444444442,0.003,Unchanged
117672,Southern California University of Health Sciences,private_nonprofit,Not_Reported,"1,000 - 4,999",33.922966,-117.983401,simpson,0.7428571428571429,-0.014,Decreasing
117751,The Master's University and Seminary,private_nonprofit,Not_Reported,"1,000 - 4,999",34.381755,-118.518193,simpson,0.3201481481481482,0.017,Increasing
117946,Loyola Marymount University,private_nonprofit,City,"5,000 - 9,999",33.97085,-118.415744,simpson,0.6178148148148147,0.006,Unchanged
118541,Marymount California University,private_nonprofit,Not_Reported,"< 1,000",33.734887,-118.333371,simpson,0.6423972602739724,0.002,Unchanged
118693,Menlo College,private_nonprofit,Not_Reported,"< 1,000",37.453475,-122.190797,simpson,0.5989629629629625,0.015,Increasing
118888,Mills College,private_nonprofit,City,"< 1,000",37.781425,-122.182294,simpson,0.6656296296296295,0.002,Unchanged
119058,Middlebury Institute of International Studies at Monterey,private_nonprofit,Not_Reported,"< 1,000",36.599736,-121.897325,simpson,0.6409999999999996,-0.018,Decreasing
119173,Mount Saint Mary's University,private_nonprofit,City,"1,000 - 4,999",34.085315,-118.482879,simpson,0.7074814814814813,-0.017,Decreasing
119605,National University,private_nonprofit,City,"10,000 - 19,999",32.909894,-117.243026,simpson,0.6281111111111106,0.01,Increasing
120166,Northwestern Polytechnic University,private_nonprofit,Not_Reported,"< 1,000",37.477991,-121.925953,simpson,-0.1123529411764708,0.067,Increasing
120184,Notre Dame de Namur University,private_nonprofit,Not_Reported,"< 1,000",37.517111,-122.284794,simpson,0.7029259259259257,-0.0,Unchanged
120254,Occidental College,private_nonprofit,City,"1,000 - 4,999",34.127124,-118.210908,simpson,0.5623703703703702,0.009,Unchanged
120403,Otis College of Art and Design,private_nonprofit,City,"1,000 - 4,999",33.956607,-118.416615,simpson,0.649111111111111,0.007,Unchanged
120537,Hope International University,private_nonprofit,Not_Reported,"1,000 - 4,999",33.87616,-117.88573,simpson,0.5882222222222222,0.009,Unchanged
120698,Palo Alto University,private_nonprofit,Rural,"1,000 - 4,999",37.382216,-122.187437,simpson,0.6649259259259259,0.009,Unchanged
120768,Pacific Oaks College,private_nonprofit,City,"1,000 - 4,999",34.153382,-118.151323,simpson,0.6731111111111107,-0.015,Decreasing
120838,Pacific States University,private_nonprofit,City,"< 1,000",34.061315,-118.298408,simpson,0.3148148148148151,0.065,Increasing
120865,Pacific Union College,private_nonprofit,Rural,"< 1,000",38.570585,-122.440308,simpson,0.6818888888888887,0.01,Increasing
120883,University of the Pacific,private_nonprofit,City,"5,000 - 9,999",37.981424,-121.312301,simpson,0.7075555555555553,-0.0,Unchanged
121150,Pepperdine University,private_nonprofit,Not_Reported,"5,000 - 9,999",34.037786,-118.707077,simpson,0.6092962962962962,0.002,Unchanged
121257,Pitzer College,private_nonprofit,Not_Reported,"< 1,000",34.104107,-117.706675,simpson,0.5996666666666666,0.003,Unchanged
121309,Point Loma Nazarene University,private_nonprofit,City,"1,000 - 4,999",32.718391,-117.250265,simpson,0.3248148148148147,0.035,Increasing
121345,Pomona College,private_nonprofit,Not_Reported,"1,000 - 4,999",34.099027,-117.714556,simpson,0.5677037037037042,0.017,Increasing
121691,University of Redlands,private_nonprofit,City,"1,000 - 4,999",34.064218,-117.163218,simpson,0.5145555555555553,0.014,Increasing
122296,Samuel Merritt University,private_nonprofit,City,"1,000 - 4,999",37.82029,-122.266331,simpson,0.6294074074074074,0.011,Increasing
122409,San Diego State University,public,City,"20,000 +",32.77525,-117.071228,simpson,0.6418518518518517,0.007,Unchanged
122436,University of San Diego,private_nonprofit,City,"5,000 - 9,999",32.770816,-117.192073,simpson,0.4912962962962963,0.011,Increasing
122454,San Francisco Art Institute,private_nonprofit,City,"< 1,000",37.803575,-122.417,simpson,0.5336296296296295,0.008,Unchanged
122506,San Francisco Conservatory of Music,private_nonprofit,City,"< 1,000",37.775543,-122.420292,simpson,0.4908148148148145,0.017,Increasing
122597,San Francisco State University,public,City,"20,000 +",37.721224,-122.476799,simpson,0.7057777777777778,0.004,Unchanged
122612,University of San Francisco,private_nonprofit,City,"10,000 - 19,999",37.776618,-122.450477,simpson,0.665222222222222,0.008,Unchanged
122728,William Jessup University,private_nonprofit,Rural,"1,000 - 4,999",38.819728,-121.292312,simpson,0.392888888888889,0.012,Increasing
122755,San Jose State University,public,City,"20,000 +",37.336569,-121.880621,simpson,0.727222222222222,-0.003,Unchanged
122931,Santa Clara University,private_nonprofit,City,"5,000 - 9,999",37.348362,-121.93784,simpson,0.6487777777777778,-0.0,Unchanged
123165,Scripps College,private_nonprofit,Not_Reported,"< 1,000",34.104147,-117.711294,simpson,0.5125185185185183,0.012,Increasing
123280,Shasta Bible College and Graduate School,private_nonprofit,City,"< 1,000",40.566034,-122.314419,simpson,0.1812962962962963,0.006,Unchanged
123457,Simpson University,private_nonprofit,City,"< 1,000",40.61334,-122.332981,simpson,0.3776666666666666,0.004,Unchanged
123554,Saint Mary's College of California,private_nonprofit,Not_Reported,"1,000 - 4,999",37.840731,-122.109031,simpson,0.5776296296296295,0.011,Increasing
123572,Sonoma State University,public,Not_Reported,"5,000 - 9,999",38.340274,-122.677066,simpson,0.3862222222222222,0.025,Increasing
123651,Vanguard University of Southern California,private_nonprofit,City,"1,000 - 4,999",33.662686,-117.900911,simpson,0.492962962962963,0.018,Increasing
123952,Southern California Institute of Architecture,private_nonprofit,City,"< 1,000",34.044215,-118.232799,simpson,0.6933333333333328,-0.002,Unchanged
123961,University of Southern California,private_nonprofit,City,"20,000 +",34.021281,-118.284169,simpson,0.6507777777777779,0.004,Unchanged
124292,Thomas Aquinas College,private_nonprofit,Rural,"< 1,000",34.429009,-119.087141,simpson,0.207,0.024,Increasing
124487,Epic Bible College,private_nonprofit,Not_Reported,"< 1,000",38.645152,-121.362642,simpson,0.7082926829268292,-0.012,Decreasing
125727,Westmont College,private_nonprofit,Not_Reported,"1,000 - 4,999",34.450151,-119.662517,simpson,0.3967037037037035,0.015,Increasing
125763,Whittier College,private_nonprofit,Not_Reported,"1,000 - 4,999",33.978773,-118.032299,simpson,0.6465185185185185,-0.0,Unchanged
125897,Woodbury University,private_nonprofit,City,"1,000 - 4,999",34.208011,-118.341147,simpson,0.622111111111111,0.003,Unchanged
126076,Yeshiva Ohr Elchonon Chabad West Coast Talmudical Seminary,private_nonprofit,City,"< 1,000",34.085465,-118.346613,simpson,-0.0,0.0,Unchanged
126182,Adams State University,public,Town,"1,000 - 4,999",37.473636,-105.879642,simpson,0.4598518518518518,0.018,Increasing
126562,University of Colorado Denver/Anschutz Medical Campus,public,City,"20,000 +",39.745149,-104.837722,simpson,0.4424814814814814,0.018,Increasing
126580,University of Colorado Colorado Springs,public,City,"10,000 - 19,999",38.892735,-104.800296,simpson,0.3638148148148147,0.013,Increasing
126614,University of Colorado Boulder,public,City,"20,000 +",40.008781,-105.270823,simpson,0.2373703703703704,0.019,Increasing
126669,Colorado Christian University,private_nonprofit,City,"5,000 - 9,999",39.71388,-105.09456,simpson,0.2182592592592592,0.022,Increasing
126678,Colorado College,private_nonprofit,City,"1,000 - 4,999",38.84886,-104.822697,simpson,0.2879999999999999,0.016,Increasing
126775,Colorado School of Mines,public,Not_Reported,"5,000 - 9,999",39.751443,-105.223364,simpson,0.2828518518518517,0.009,Unchanged
126818,Colorado State University-Fort Collins,public,City,"20,000 +",40.574805,-105.080732,simpson,0.2225555555555555,0.015,Increasing
127060,University of Denver,private_nonprofit,City,"10,000 - 19,999",39.678005,-104.963259,simpson,0.3390370370370368,0.006,Unchanged
127185,Fort Lewis College,public,Town,"1,000 - 4,999",37.275939,-107.867422,simpson,0.422222222222222,0.022,Increasing
127556,Colorado Mesa University,public,City,"5,000 - 9,999",39.080643,-108.553275,simpson,0.230962962962963,0.019,Increasing
127565,Metropolitan State University of Denver,public,City,"10,000 - 19,999",39.744202,-105.00504,simpson,0.4062222222222221,0.015,Increasing
127653,Naropa University,private_nonprofit,City,"< 1,000",40.014235,-105.266987,simpson,0.2967777777777778,0.016,Increasing
127714,Nazarene Bible College,private_nonprofit,City,"< 1,000",38.944824,-104.803251,simpson,0.2630740740740737,0.022,Increasing
127741,University of Northern Colorado,public,City,"10,000 - 19,999",40.410855,-104.692777,simpson,0.270851851851852,0.025,Increasing
127918,Regis University,private_nonprofit,City,"5,000 - 9,999",39.788175,-105.030756,simpson,0.3842222222222219,0.006,Unchanged
128106,Colorado State University Pueblo,public,City,"5,000 - 9,999",38.30859,-104.579033,simpson,0.505,0.01,Increasing
128328,United States Air Force Academy,public,Town,"1,000 - 4,999",39.010957,-104.891358,simpson,0.37,0.015,Increasing
128391,Western Colorado University,public,Town,"1,000 - 4,999",38.549936,-106.919132,simpson,0.1062962962962961,0.026,Increasing
128498,Albertus Magnus College,private_nonprofit,City,"1,000 - 4,999",41.332519,-72.923848,simpson,0.4827407407407407,0.02,Increasing
128744,University of Bridgeport,private_nonprofit,City,"1,000 - 4,999",41.164741,-73.190166,simpson,0.6877037037037036,0.002,Unchanged
128771,Central Connecticut State University,public,Not_Reported,"10,000 - 19,999",41.692502,-72.765991,simpson,0.3122222222222222,0.022,Increasing
128780,Charter Oak State College,public,Not_Reported,"1,000 - 4,999",41.688246,-72.767972,simpson,0.4251851851851849,0.01,Increasing
128902,Connecticut College,private_nonprofit,City,"1,000 - 4,999",41.379833,-72.107321,simpson,0.2577777777777777,0.013,Increasing
129020,University of Connecticut,public,Not_Reported,"20,000 +",41.809098,-72.249948,simpson,0.3518148148148147,0.019,Increasing
129215,Eastern Connecticut State University,public,Town,"1,000 - 4,999",41.721673,-72.218753,simpson,0.2791851851851851,0.013,Increasing
129242,Fairfield University,private_nonprofit,Not_Reported,"5,000 - 9,999",41.157673,-73.255903,simpson,0.3652962962962962,-0.011,Decreasing
129525,University of Hartford,private_nonprofit,City,"5,000 - 9,999",41.798591,-72.715213,simpson,0.3618148148148148,0.019,Increasing
129534,Holy Apostles College and Seminary,private_nonprofit,Not_Reported,"< 1,000",41.60682,-72.647853,simpson,0.3341481481481482,0.015,Increasing
129774,Mitchell College,private_nonprofit,City,"< 1,000",41.328013,-72.09523,simpson,0.338222222222222,0.029,Increasing
129941,University of New Haven,private_nonprofit,Not_Reported,"5,000 - 9,999",41.291314,-72.961472,simpson,0.3269629629629628,0.011,Increasing
130226,Quinnipiac University,private_nonprofit,Not_Reported,"5,000 - 9,999",41.418915,-72.894117,simpson,0.236037037037037,0.01,Increasing
130253,Sacred Heart University,private_nonprofit,Not_Reported,"5,000 - 9,999",41.220893,-73.243332,simpson,0.213111111111111,0.015,Increasing
130314,University of Saint Joseph,private_nonprofit,Not_Reported,"1,000 - 4,999",41.781041,-72.72965,simpson,0.4125925925925924,0.018,Increasing
130493,Southern Connecticut State University,public,City,"5,000 - 9,999",41.333225,-72.947897,simpson,0.3861111111111111,0.016,Increasing
130590,Trinity College,private_nonprofit,City,"1,000 - 4,999",41.747451,-72.690882,simpson,0.4449629629629629,-0.008,Unchanged
130624,United States Coast Guard Academy,public,City,"1,000 - 4,999",41.375823,-72.101583,simpson,0.2455555555555554,0.031,Increasing
130697,Wesleyan University,private_nonprofit,City,"1,000 - 4,999",41.554665,-72.657146,simpson,0.5087407407407404,0.007,Unchanged
130776,Western Connecticut State University,public,City,"5,000 - 9,999",41.400365,-73.444264,simpson,0.3383703703703701,0.021,Increasing
130794,Yale University,private_nonprofit,City,"10,000 - 19,999",41.311158,-72.926688,simpson,0.6003333333333333,0.007,Unchanged
130934,Delaware State University,public,City,"1,000 - 4,999",39.187173,-75.54053,simpson,0.3725185185185185,0.007,Unchanged
130943,University of Delaware,public,Not_Reported,"20,000 +",39.679577,-75.752822,simpson,0.2638518518518519,0.011,Increasing
130989,Goldey-Beacom College,private_nonprofit,Not_Reported,"1,000 - 4,999",39.741501,-75.689624,simpson,0.4708888888888888,0.018,Increasing
131098,Wesley College,private_nonprofit,City,"< 1,000",39.163182,-75.527716,simpson,0.4203333333333331,0.022,Increasing
131113,Wilmington University,private_nonprofit,Not_Reported,"10,000 - 19,999",39.682299,-75.586998,simpson,0.4626296296296294,0.006,Unchanged
131159,American University,private_nonprofit,City,"10,000 - 19,999",38.936005,-77.088875,simpson,0.3821851851851851,0.019,Increasing
131283,The Catholic University of America,private_nonprofit,City,"5,000 - 9,999",38.933651,-76.997909,simpson,0.3360740740740741,0.013,Increasing
131399,University of the District of Columbia,public,City,"1,000 - 4,999",38.943819,-77.066247,simpson,0.2881111111111111,0.025,Increasing
131450,Gallaudet University,private_nonprofit,City,"1,000 - 4,999",38.907371,-76.993675,simpson,0.4387407407407406,0.017,Increasing
131469,George Washington University,private_nonprofit,City,"20,000 +",38.89923,-77.048363,simpson,0.4326666666666663,0.014,Increasing
131496,Georgetown University,private_nonprofit,City,"10,000 - 19,999",38.908809,-77.073463,simpson,0.4198518518518517,0.013,Increasing
131520,Howard University,private_nonprofit,City,"10,000 - 19,999",38.922392,-77.018966,simpson,0.0172962962962962,0.013,Increasing
131876,Trinity Washington University,private_nonprofit,City,"1,000 - 4,999",38.927398,-77.004261,simpson,0.3652222222222221,0.013,Increasing
132408,The Baptist College of Florida,private_nonprofit,Town,"< 1,000",30.962708,-85.503931,simpson,0.2103333333333332,0.002,Unchanged
132471,Barry University,private_nonprofit,Not_Reported,"5,000 - 9,999",25.878908,-80.198925,simpson,0.6700740740740738,0.001,Unchanged
132602,Bethune-Cookman University,private_nonprofit,City,"1,000 - 4,999",29.207195,-81.032946,simpson,0.1569259259259259,-0.002,Unchanged
132657,Lynn University,private_nonprofit,City,"1,000 - 4,999",26.385985,-80.122806,simpson,0.4696666666666664,0.013,Increasing
132842,Albizu University-Miami,private_nonprofit,City,"< 1,000",25.794178,-80.356315,simpson,0.1634074074074073,-0.011,Decreasing
132879,Johnson University Florida,private_nonprofit,Not_Reported,"< 1,000",28.302547,-81.363053,simpson,0.3434074074074074,0.004,Unchanged
132903,University of Central Florida,public,Not_Reported,"20,000 +",28.602159,-81.200889,simpson,0.4819259259259258,0.018,Increasing
133492,Eckerd College,private_nonprofit,City,"1,000 - 4,999",27.715798,-82.687043,simpson,0.3096666666666666,0.003,Unchanged
133526,Edward Waters College,private_nonprofit,City,"1,000 - 4,999",30.34479,-81.684879,simpson,0.0116296296296296,0.024,Increasing
133553,Embry-Riddle Aeronautical University-Daytona Beach,private_nonprofit,City,"5,000 - 9,999",29.189903,-81.048367,simpson,0.4248518518518515,0.008,Unchanged
133650,Florida Agricultural and Mechanical University,public,City,"5,000 - 9,999",30.428504,-84.290226,simpson,0.0462962962962962,0.011,Increasing
133669,Florida Atlantic University,public,City,"20,000 +",26.372421,-80.102978,simpson,0.6185185185185186,0.009,Unchanged
133711,Flagler College,private_nonprofit,Not_Reported,"1,000 - 4,999",29.892733,-81.314887,simpson,0.2195555555555556,0.009,Unchanged
133872,AdventHealth University,private_nonprofit,City,"1,000 - 4,999",28.576142,-81.367687,simpson,0.4606666666666666,0.025,Increasing
133881,Florida Institute of Technology,private_nonprofit,City,"5,000 - 9,999",28.065815,-80.622893,simpson,0.3381851851851852,0.016,Increasing
133951,Florida International University,public,Not_Reported,"20,000 +",25.75732,-80.373928,simpson,0.4777037037037036,-0.003,Unchanged
133979,Florida Memorial University,private_nonprofit,Not_Reported,"< 1,000",25.918278,-80.270753,simpson,0.0105925925925926,0.019,Increasing
134079,Florida Southern College,private_nonprofit,City,"1,000 - 4,999",28.032443,-81.948203,simpson,0.3236666666666667,0.006,Unchanged
134097,Florida State University,public,City,"20,000 +",30.440756,-84.291921,simpson,0.4275185185185181,0.012,Increasing
134130,University of Florida,public,City,"20,000 +",29.64629,-82.347911,simpson,0.5485925925925922,0.005,Unchanged
134510,Hobe Sound Bible College,private_nonprofit,Not_Reported,"< 1,000",27.066304,-80.13184,simpson,0.0698518518518517,0.023,Increasing
134945,Jacksonville University,private_nonprofit,City,"1,000 - 4,999",30.353227,-81.60458,simpson,0.4658148148148145,0.007,Unchanged
135364,Luther Rice College & Seminary,private_nonprofit,Not_Reported,"< 1,000",33.698126,-84.123179,simpson,0.5204444444444444,-0.004,Unchanged
135610,Trinity International University-Florida,private_nonprofit,Not_Reported,"< 1,000",25.68307,-80.417646,simpson,0.6605555555555553,-0.014,Decreasing
135726,University of Miami,private_nonprofit,City,"10,000 - 19,999",25.72126,-80.278662,simpson,0.601037037037037,0.005,Unchanged
136172,University of North Florida,public,City,"10,000 - 19,999",30.27194,-81.509144,simpson,0.3894074074074074,0.011,Increasing
136215,Nova Southeastern University,private_nonprofit,Not_Reported,"20,000 +",26.079337,-80.24248,simpson,0.6921111111111109,0.003,Unchanged
136330,Palm Beach Atlantic University,private_nonprofit,City,"1,000 - 4,999",26.7044,-80.05247,simpson,0.5362592592592591,-0.002,Unchanged
136774,Ringling College of Art and Design,private_nonprofit,City,"1,000 - 4,999",27.360931,-82.547803,simpson,0.4569999999999999,0.014,Increasing
136950,Rollins College,private_nonprofit,Not_Reported,"1,000 - 4,999",28.592787,-81.349239,simpson,0.3891851851851848,0.013,Increasing
137032,Saint Leo University,private_nonprofit,Not_Reported,"5,000 - 9,999",28.336776,-82.257801,simpson,0.5734444444444442,0.007,Unchanged
137272,St. John Vianney College Seminary,private_nonprofit,Not_Reported,"< 1,000",25.742579,-80.337411,simpson,0.5546666666666662,-0.002,Unchanged
137351,University of South Florida,public,City,"20,000 +",28.061458,-82.413232,simpson,0.535925925925926,0.011,Increasing
137476,St. Thomas University,private_nonprofit,Not_Reported,"5,000 - 9,999",25.922071,-80.253273,simpson,0.568148148148148,0.003,Unchanged
137546,Stetson University,private_nonprofit,City,"1,000 - 4,999",29.035475,-81.300746,simpson,0.3265185185185184,0.02,Increasing
137564,Southeastern University,private_nonprofit,City,"5,000 - 9,999",28.029733,-81.918382,simpson,0.339222222222222,0.016,Increasing
137777,Talmudic College of Florida,private_nonprofit,City,"< 1,000",25.811996,-80.136293,simpson,0.3018518518518517,-0.038,Decreasing
137847,The University of Tampa,private_nonprofit,City,"5,000 - 9,999",27.948455,-82.46483,simpson,0.4027777777777775,0.003,Unchanged
137953,Trinity Baptist College,private_nonprofit,City,"< 1,000",30.311171,-81.79626,simpson,0.177074074074074,0.03,Increasing
137962,Trinity College of Florida,private_nonprofit,Not_Reported,"< 1,000",28.194732,-82.678318,simpson,0.3193703703703704,0.033,Increasing
138275,Warner University,private_nonprofit,Rural,"< 1,000",27.825751,-81.599972,simpson,0.5641851851851849,0.003,Unchanged
138293,Webber International University,private_nonprofit,Town,"< 1,000",27.838778,-81.532315,simpson,0.4752592592592591,0.016,Increasing
138354,The University of West Florida,public,City,"10,000 - 19,999",30.549076,-87.218511,simpson,0.3334444444444444,0.017,Increasing
138600,Agnes Scott College,private_nonprofit,Not_Reported,"1,000 - 4,999",33.769268,-84.295459,simpson,0.571037037037037,0.015,Increasing
138716,Albany State University,public,City,"5,000 - 9,999",31.56928,-84.141825,simpson,0.1004814814814814,0.019,Increasing
138868,Point University,private_nonprofit,Town,"1,000 - 4,999",32.87912,-85.184931,simpson,0.5079259259259259,0.01,Increasing
138947,Clark Atlanta University,private_nonprofit,City,"1,000 - 4,999",33.747628,-84.412584,simpson,0.0076296296296296,0.001,Unchanged
139144,Berry College,private_nonprofit,Not_Reported,"1,000 - 4,999",34.290414,-85.189202,simpson,0.1768148148148147,0.014,Increasing
139153,Beulah Heights University,private_nonprofit,City,"< 1,000",33.736993,-84.35768,simpson,0.331148148148148,-0.006,Unchanged
139199,Brenau University,private_nonprofit,City,"1,000 - 4,999",34.303117,-83.821513,simpson,0.5118518518518518,0.007,Unchanged
139205,Brewton-Parker College,private_nonprofit,Rural,"< 1,000",32.185718,-82.586136,simpson,0.3676666666666666,0.024,Increasing
139250,College of Coastal Georgia,public,City,"1,000 - 4,999",31.182745,-81.485973,simpson,0.1902592592592592,0.026,Increasing
139311,Clayton State University,public,Not_Reported,"5,000 - 9,999",33.594079,-84.328174,simpson,0.533037037037037,-0.006,Unchanged
139366,Columbus State University,public,City,"5,000 - 9,999",32.50096,-84.94106,simpson,0.5306296296296297,0.007,Unchanged
139393,Covenant College,private_nonprofit,Rural,"< 1,000",34.965161,-85.375066,simpson,0.196074074074074,-0.002,Unchanged
139463,Dalton State College,public,City,"1,000 - 4,999",34.774221,-85.002775,simpson,0.2436666666666666,0.021,Increasing
139630,Emmanuel College,private_nonprofit,Town,"< 1,000",34.283641,-83.14822,simpson,0.2990370370370369,0.011,Increasing
139658,Emory University,private_nonprofit,City,"10,000 - 19,999",33.790183,-84.325512,simpson,0.5907777777777775,0.009,Unchanged
139719,Fort Valley State University,public,Town,"1,000 - 4,999",32.537595,-83.89537,simpson,0.122037037037037,0.002,Unchanged
139755,Georgia Institute of Technology-Main Campus,public,City,"20,000 +",33.77242,-84.394832,simpson,0.484185185185185,0.013,Increasing
139764,Georgia Southwestern State University,public,Town,"1,000 - 4,999",32.054662,-84.217738,simpson,0.4317037037037036,0.005,Unchanged
139861,Georgia College & State University,public,Town,"5,000 - 9,999",33.082787,-83.231962,simpson,0.2019259259259259,0.008,Unchanged
139931,Georgia Southern University,public,Town,"20,000 +",32.426153,-81.784045,simpson,0.4314074074074072,0.01,Increasing
139940,Georgia State University,public,City,"20,000 +",33.7527,-84.38667,simpson,0.6697037037037039,0.006,Unchanged
139959,University of Georgia,public,City,"20,000 +",33.956262,-83.374039,simpson,0.2924814814814815,0.018,Increasing
140234,LaGrange College,private_nonprofit,Town,"< 1,000",33.038564,-85.043113,simpson,0.4155185185185184,-0.007,Unchanged
140252,Life University,private_nonprofit,City,"1,000 - 4,999",33.932781,-84.514729,simpson,0.4762592592592592,0.013,Increasing
140340,Herzing University-Atlanta,private_nonprofit,City,"< 1,000",33.754218,-84.387251,simpson,0.6033333333333332,-0.022,Decreasing
140447,Mercer University,private_nonprofit,City,"5,000 - 9,999",32.831787,-83.648295,simpson,0.5588518518518518,0.006,Unchanged
140553,Morehouse College,private_nonprofit,City,"1,000 - 4,999",33.745982,-84.414917,simpson,0.0155185185185185,0.003,Unchanged
140696,Oglethorpe University,private_nonprofit,Not_Reported,"1,000 - 4,999",33.875441,-84.333687,simpson,0.5699629629629628,0.007,Unchanged
140720,Paine College,private_nonprofit,City,"< 1,000",33.469545,-81.993225,simpson,0.1126666666666666,-0.001,Unchanged
140818,Piedmont University,private_nonprofit,Town,"1,000 - 4,999",34.566042,-83.542126,simpson,0.1994444444444444,0.014,Increasing
140872,Reinhardt University,private_nonprofit,Rural,"1,000 - 4,999",34.319756,-84.554264,simpson,0.1967407407407406,0.023,Increasing
140951,Savannah College of Art and Design,private_nonprofit,City,"10,000 - 19,999",32.072963,-81.093849,simpson,0.3410000000000001,0.017,Increasing
140960,Savannah State University,public,City,"1,000 - 4,999",32.024781,-81.063377,simpson,0.0904074074074073,0.018,Increasing
140988,Shorter University,private_nonprofit,City,"1,000 - 4,999",34.257543,-85.196529,simpson,0.2736666666666667,0.026,Increasing
141060,Spelman College,private_nonprofit,City,"1,000 - 4,999",33.745279,-84.411527,simpson,0.0777037037037036,-0.003,Unchanged
141167,Thomas University,private_nonprofit,Town,"1,000 - 4,999",30.815576,-83.963587,simpson,0.4717777777777776,0.006,Unchanged
141185,Toccoa Falls College,private_nonprofit,Town,"1,000 - 4,999",34.593414,-83.357617,simpson,0.2251111111111109,0.014,Increasing
141237,Truett McConnell University,private_nonprofit,Town,"1,000 - 4,999",34.596306,-83.748911,simpson,0.0689629629629629,0.01,Increasing
141264,Valdosta State University,public,City,"10,000 - 19,999",30.847402,-83.289282,simpson,0.4739259259259259,0.012,Increasing
141325,Wesleyan College,private_nonprofit,City,"< 1,000",32.876037,-83.715417,simpson,0.626296296296296,-0.004,Unchanged
141334,University of West Georgia,public,Town,"10,000 - 19,999",33.573621,-85.097762,simpson,0.466185185185185,0.012,Increasing
141361,Young Harris College,private_nonprofit,Rural,"1,000 - 4,999",34.933523,-83.84587,simpson,0.1351851851851851,0.015,Increasing
141486,Chaminade University of Honolulu,private_nonprofit,City,"1,000 - 4,999",21.28995,-157.807851,simpson,0.8047777777777777,-0.003,Unchanged
141565,University of Hawaii at Hilo,public,Town,"1,000 - 4,999",19.701189,-155.080847,simpson,0.768851851851852,0.001,Unchanged
141574,University of Hawaii at Manoa,public,City,"10,000 - 19,999",21.298598,-157.818979,simpson,0.7158518518518521,-0.0,Unchanged
141644,Hawaii Pacific University,private_nonprofit,City,"1,000 - 4,999",21.310306,-157.859645,simpson,0.7637777777777778,-0.0,Unchanged
141981,University of Hawaii-West Oahu,public,Not_Reported,"1,000 - 4,999",21.35531,-158.056403,simpson,0.746481481481481,-0.004,Unchanged
142115,Boise State University,public,City,"20,000 +",43.604284,-116.203301,simpson,0.1953703703703704,0.02,Increasing
142276,Idaho State University,public,City,"10,000 - 19,999",42.863832,-112.432312,simpson,0.1552962962962963,0.019,Increasing
142285,University of Idaho,public,Town,"10,000 - 19,999",46.727406,-117.014167,simpson,0.1714814814814813,0.016,Increasing
142294,The College of Idaho,private_nonprofit,Not_Reported,"1,000 - 4,999",43.652284,-116.677992,simpson,0.2897407407407406,0.014,Increasing
142328,Lewis-Clark State College,public,City,"1,000 - 4,999",46.412199,-117.024875,simpson,0.1940370370370369,0.006,Unchanged
142461,Northwest Nazarene University,private_nonprofit,Not_Reported,"1,000 - 4,999",43.562411,-116.565783,simpson,0.1862222222222221,0.01,Increasing
142522,Brigham Young University-Idaho,private_nonprofit,Town,"20,000 +",43.818408,-111.782431,simpson,0.1360370370370371,0.01,Increasing
142887,American Academy of Art,private_nonprofit,City,"< 1,000",41.87742,-87.624788,simpson,0.493222222222222,0.014,Increasing
142957,American Islamic College,private_nonprofit,City,"< 1,000",41.954969,-87.646898,simpson,0.9799999999999984,-0.06,Decreasing
143048,School of the Art Institute of Chicago,private_nonprofit,City,"1,000 - 4,999",41.88105,-87.625758,simpson,0.4082592592592592,0.022,Increasing
143084,Augustana College,private_nonprofit,City,"1,000 - 4,999",41.502365,-90.55057,simpson,0.1458148148148146,0.022,Increasing
143118,Aurora University,private_nonprofit,Not_Reported,"5,000 - 9,999",41.753631,-88.349023,simpson,0.3526666666666663,0.024,Increasing
143288,Blackburn College,private_nonprofit,Town,"< 1,000",39.287896,-89.870241,simpson,0.1061851851851851,0.017,Increasing
143297,Blessing Rieman College of Nursing and Health Sciences,private_nonprofit,Town,"< 1,000",39.949641,-91.357497,simpson,0.1882592592592592,-0.008,Unchanged
143358,Bradley University,private_nonprofit,City,"5,000 - 9,999",40.696896,-89.616786,simpson,0.2541851851851853,0.013,Increasing
144005,Chicago State University,public,City,"1,000 - 4,999",41.718446,-87.609384,simpson,0.1769259259259259,0.013,Increasing
144050,University of Chicago,private_nonprofit,City,"10,000 - 19,999",41.787994,-87.599539,simpson,0.6104814814814811,0.004,Unchanged
144281,Columbia College Chicago,private_nonprofit,City,"5,000 - 9,999",41.874261,-87.624667,simpson,0.4035555555555552,0.017,Increasing
144351,Concordia University-Chicago,private_nonprofit,Not_Reported,"5,000 - 9,999",41.898696,-87.809482,simpson,0.4053703703703704,0.025,Increasing
144740,DePaul University,private_nonprofit,City,"20,000 +",41.877618,-87.62724,simpson,0.5177407407407406,0.01,Increasing
144883,East-West University,private_nonprofit,City,"< 1,000",41.871309,-87.624793,simpson,0.5487777777777774,0.005,Unchanged
144892,Eastern Illinois University,public,Town,"5,000 - 9,999",39.479843,-88.175658,simpson,0.2004444444444444,0.026,Increasing
144962,Elmhurst University,private_nonprofit,Not_Reported,"1,000 - 4,999",41.897164,-87.945369,simpson,0.260296296296296,0.024,Increasing
144971,Eureka College,private_nonprofit,Town,"< 1,000",40.71482,-89.269624,simpson,0.0878148148148147,0.011,Increasing
145336,Governors State University,public,Rural,"1,000 - 4,999",41.449103,-87.716441,simpson,0.574074074074074,0.009,Unchanged
145372,Greenville University,private_nonprofit,Town,"< 1,000",38.894162,-89.40824,simpson,0.178222222222222,0.014,Increasing
145497,Hebrew Theological College,private_nonprofit,City,"< 1,000",42.010103,-87.760874,simpson,-0.0258148148148148,0.008,Unchanged
145600,University of Illinois Chicago,public,City,"20,000 +",41.871837,-87.650503,simpson,0.6392592592592597,0.009,Unchanged
145619,Benedictine University,private_nonprofit,Not_Reported,"1,000 - 4,999",41.777569,-88.097307,simpson,0.5624444444444442,0.005,Unchanged
145637,University of Illinois Urbana-Champaign,public,City,"20,000 +",40.104718,-88.229114,simpson,0.4323703703703703,0.019,Increasing
145646,Illinois Wesleyan University,private_nonprofit,City,"1,000 - 4,999",40.489901,-88.992014,simpson,0.237222222222222,0.012,Increasing
145691,Illinois College,private_nonprofit,Town,"1,000 - 4,999",39.7313,-90.246171,simpson,0.1698148148148147,0.025,Increasing
145725,Illinois Institute of Technology,private_nonprofit,City,"5,000 - 9,999",41.8313,-87.627321,simpson,0.504037037037037,0.021,Increasing
145813,Illinois State University,public,Not_Reported,"20,000 +",40.509403,-88.990058,simpson,0.1830370370370369,0.019,Increasing
146339,Judson University,private_nonprofit,City,"1,000 - 4,999",42.061754,-88.291336,simpson,0.2106666666666664,0.035,Increasing
146427,Knox College,private_nonprofit,Town,"1,000 - 4,999",40.943064,-90.373165,simpson,0.2854814814814813,0.034,Increasing
146481,Lake Forest College,private_nonprofit,Not_Reported,"1,000 - 4,999",42.249574,-87.827454,simpson,0.3485555555555554,0.022,Increasing
146533,Lakeview College of Nursing,private_nonprofit,City,"< 1,000",40.13855,-87.644379,simpson,0.3739629629629629,-0.005,Unchanged
146612,Lewis University,private_nonprofit,Not_Reported,"5,000 - 9,999",41.605432,-88.079032,simpson,0.3921111111111109,0.013,Increasing
146667,Lincoln Christian University,private_nonprofit,Town,"< 1,000",40.148924,-89.346721,simpson,0.1629259259259259,0.01,Increasing
146676,Lincoln College,private_nonprofit,Town,"< 1,000",40.155442,-89.36153,simpson,0.2093703703703704,0.023,Increasing
146719,Loyola University Chicago,private_nonprofit,City,"10,000 - 19,999",42.000765,-87.656872,simpson,0.4450740740740739,0.011,Increasing
146755,Trinity College of Nursing & Health Sciences,private_nonprofit,City,"< 1,000",41.484924,-90.568862,simpson,0.1444444444444444,0.019,Increasing
147013,McKendree University,private_nonprofit,Not_Reported,"1,000 - 4,999",38.608154,-89.816822,simpson,0.2630740740740739,0.012,Increasing
147129,Methodist College,private_nonprofit,City,"< 1,000",40.7804,-89.682864,simpson,0.2198148148148147,0.01,Increasing
147244,Millikin University,private_nonprofit,City,"1,000 - 4,999",39.842612,-88.976298,simpson,0.2407777777777777,0.014,Increasing
147341,Monmouth College,private_nonprofit,Town,"< 1,000",40.914824,-90.63731,simpson,0.1795185185185186,0.031,Increasing
147369,Moody Bible Institute,private_nonprofit,City,"1,000 - 4,999",41.897822,-87.633459,simpson,0.1687777777777776,0.02,Increasing
147536,National Louis University,private_nonprofit,City,"5,000 - 9,999",41.880093,-87.624699,simpson,0.6404444444444444,0.006,Unchanged
147590,National University of Health Sciences,private_nonprofit,Not_Reported,"< 1,000",41.861697,-88.013171,simpson,0.3994444444444444,0.024,Increasing
147660,North Central College,private_nonprofit,City,"1,000 - 4,999",41.77576,-88.14279,simpson,0.1737407407407407,0.027,Increasing
147679,North Park University,private_nonprofit,City,"1,000 - 4,999",41.975268,-87.709948,simpson,0.3920740740740738,0.03,Increasing
147703,Northern Illinois University,public,Not_Reported,"10,000 - 19,999",41.933869,-88.766428,simpson,0.3867777777777776,0.021,Increasing
147767,Northwestern University,private_nonprofit,City,"20,000 +",42.050356,-87.679858,simpson,0.527037037037037,0.012,Increasing
147776,Northeastern Illinois University,public,City,"5,000 - 9,999",41.980399,-87.718983,simpson,0.6382962962962964,0.005,Unchanged
147828,Olivet Nazarene University,private_nonprofit,Not_Reported,"1,000 - 4,999",41.155237,-87.875165,simpson,0.2182592592592591,0.012,Increasing
148016,Principia College,private_nonprofit,Rural,"< 1,000",38.948835,-90.350285,simpson,0.1251851851851851,0.01,Increasing
148131,Quincy University,private_nonprofit,Town,"1,000 - 4,999",39.938898,-91.385975,simpson,0.3229999999999999,-0.009,Decreasing
148405,Rockford University,private_nonprofit,City,"1,000 - 4,999",42.270639,-89.019536,simpson,0.2375185185185185,0.027,Increasing
148487,Roosevelt University,private_nonprofit,City,"1,000 - 4,999",41.876055,-87.624952,simpson,0.5878518518518515,0.009,Unchanged
148496,Dominican University,private_nonprofit,Not_Reported,"1,000 - 4,999",41.902678,-87.823003,simpson,0.5610740740740736,0.003,Unchanged
148511,Rush University,private_nonprofit,City,"1,000 - 4,999",41.874742,-87.668581,simpson,0.581407407407407,0.01,Increasing
148575,Saint Francis Medical Center College of Nursing,private_nonprofit,City,"< 1,000",40.701241,-89.590322,simpson,0.1618888888888888,0.005,Unchanged
148584,University of St Francis,private_nonprofit,Not_Reported,"1,000 - 4,999",41.532225,-88.096057,simpson,0.3295185185185183,0.016,Increasing
148593,St. John's College-Department of Nursing,private_nonprofit,City,"< 1,000",39.807602,-89.64532,simpson,0.0287407407407407,0.012,Increasing
148627,Saint Xavier University,private_nonprofit,City,"1,000 - 4,999",41.707199,-87.714749,simpson,0.4756296296296295,0.017,Increasing
148654,University of Illinois Springfield,public,City,"1,000 - 4,999",39.729524,-89.616796,simpson,0.2904444444444443,0.016,Increasing
149028,Saint Anthony College of Nursing,private_nonprofit,City,"< 1,000",42.310147,-88.991968,simpson,0.2377407407407405,0.015,Increasing
149222,Southern Illinois University-Carbondale,public,City,"10,000 - 19,999",37.714193,-89.217273,simpson,0.4106296296296295,0.007,Unchanged
149231,Southern Illinois University-Edwardsville,public,Not_Reported,"10,000 - 19,999",38.793949,-89.997779,simpson,0.2523703703703703,0.009,Unchanged
149329,Telshe Yeshiva-Chicago,private_nonprofit,City,"< 1,000",41.975536,-87.71755,simpson,-0.0,0.0,Unchanged
149505,Trinity Christian College,private_nonprofit,Not_Reported,"1,000 - 4,999",41.667687,-87.783973,simpson,0.2314444444444442,0.023,Increasing
149514,Trinity International University-Illinois,private_nonprofit,Not_Reported,"1,000 - 4,999",42.197945,-87.880851,simpson,0.4810740740740738,-0.002,Unchanged
149639,VanderCook College of Music,private_nonprofit,City,"< 1,000",41.836833,-87.629138,simpson,0.3897777777777778,0.007,Unchanged
149763,Resurrection University,private_nonprofit,City,"< 1,000",41.90748,-87.685291,simpson,0.5954444444444446,0.016,Increasing
149772,Western Illinois University,public,Town,"5,000 - 9,999",40.468086,-90.686899,simpson,0.2277037037037038,0.027,Increasing
149781,Wheaton College,private_nonprofit,Not_Reported,"1,000 - 4,999",41.870176,-88.099643,simpson,0.2301481481481482,0.017,Increasing
150066,Anderson University,private_nonprofit,City,"1,000 - 4,999",40.112768,-85.664315,simpson,0.1157407407407407,0.011,Increasing
150136,Ball State University,public,City,"20,000 +",40.203431,-85.409043,simpson,0.150111111111111,0.014,Increasing
150145,Bethel University,private_nonprofit,City,"1,000 - 4,999",41.678399,-86.194686,simpson,0.2505185185185183,0.023,Increasing
150163,Butler University,private_nonprofit,City,"5,000 - 9,999",39.8374,-86.172167,simpson,0.145037037037037,0.013,Increasing
150172,Calumet College of Saint Joseph,private_nonprofit,Not_Reported,"< 1,000",41.671008,-87.494123,simpson,0.6415555555555554,0.003,Unchanged
150400,DePauw University,private_nonprofit,Town,"1,000 - 4,999",39.640904,-86.860363,simpson,0.2717407407407407,0.013,Increasing
150455,Earlham College,private_nonprofit,Town,"< 1,000",39.823431,-84.915037,simpson,0.2856296296296297,0.022,Increasing
150534,University of Evansville,private_nonprofit,City,"1,000 - 4,999",37.971549,-87.531644,simpson,0.1547037037037036,0.006,Unchanged
150604,Franklin College,private_nonprofit,Not_Reported,"< 1,000",39.478298,-86.047182,simpson,0.101962962962963,0.011,Increasing
150668,Goshen College,private_nonprofit,City,"< 1,000",41.563582,-85.827795,simpson,0.1721851851851852,0.024,Increasing
150677,Grace College and Theological Seminary,private_nonprofit,Town,"1,000 - 4,999",41.22595,-85.814228,simpson,0.2298518518518517,-0.002,Unchanged
150756,Hanover College,private_nonprofit,Town,"1,000 - 4,999",38.715642,-85.460051,simpson,0.1138148148148147,0.013,Increasing
150774,Holy Cross College,private_nonprofit,Not_Reported,"< 1,000",41.698996,-86.253822,simpson,0.3207037037037035,0.018,Increasing
150941,Huntington University,private_nonprofit,Town,"1,000 - 4,999",40.898152,-85.497317,simpson,0.0137407407407407,0.022,Increasing
151102,Purdue University Fort Wayne,public,City,"5,000 - 9,999",41.117278,-85.108962,simpson,0.2018518518518517,0.007,Unchanged
151111,Indiana University-Purdue University-Indianapolis,public,City,"20,000 +",39.772948,-86.172217,simpson,0.2579629629629629,0.018,Increasing
151263,University of Indianapolis,private_nonprofit,City,"5,000 - 9,999",39.709571,-86.133969,simpson,0.1734444444444443,0.017,Increasing
151290,Indiana Institute of Technology,private_nonprofit,City,"1,000 - 4,999",41.078365,-85.116479,simpson,0.4408888888888886,0.003,Unchanged
151306,University of Southern Indiana,public,Not_Reported,"10,000 - 19,999",37.962374,-87.677214,simpson,0.0961111111111111,0.011,Increasing
151324,Indiana State University,public,City,"10,000 - 19,999",39.469073,-87.407846,simpson,0.2529999999999999,0.016,Increasing
151333,Indiana University-Kokomo,public,City,"1,000 - 4,999",40.460062,-86.132048,simpson,0.1596666666666667,0.008,Unchanged
151342,Indiana University-South Bend,public,City,"1,000 - 4,999",41.665324,-86.221991,simpson,0.2151481481481481,0.017,Increasing
151351,Indiana University-Bloomington,public,City,"20,000 +",39.16609,-86.526559,simpson,0.2077037037037036,0.017,Increasing
151360,Indiana University-Northwest,public,City,"1,000 - 4,999",41.557324,-87.337249,simpson,0.496222222222222,0.01,Increasing
151379,Indiana University-Southeast,public,Not_Reported,"1,000 - 4,999",38.345191,-85.819985,simpson,0.1893703703703703,0.003,Unchanged
151388,Indiana University-East,public,Rural,"1,000 - 4,999",39.868707,-84.881923,simpson,0.0994814814814814,0.012,Increasing
151777,Manchester University,private_nonprofit,Town,"1,000 - 4,999",41.010549,-85.762643,simpson,0.0817777777777776,0.021,Increasing
151786,Marian University,private_nonprofit,City,"1,000 - 4,999",39.813233,-86.202643,simpson,0.3457037037037035,-0.002,Unchanged
151801,Indiana Wesleyan University-Marion,private_nonprofit,Town,"1,000 - 4,999",40.517937,-85.667503,simpson,0.3415185185185184,-0.015,Decreasing
151810,Martin University,private_nonprofit,City,"< 1,000",39.798144,-86.103953,simpson,0.0355925925925925,0.009,Unchanged
152080,University of Notre Dame,private_nonprofit,Not_Reported,"10,000 - 19,999",41.703058,-86.238959,simpson,0.3716666666666669,0.007,Unchanged
152099,Oakland City University,private_nonprofit,Town,"1,000 - 4,999",38.340891,-87.35144,simpson,0.225962962962963,-0.001,Unchanged
152318,Rose-Hulman Institute of Technology,private_nonprofit,City,"1,000 - 4,999",39.483602,-87.326749,simpson,0.153111111111111,0.02,Increasing
152336,University of Saint Francis-Fort Wayne,private_nonprofit,City,"1,000 - 4,999",41.087205,-85.177246,simpson,0.1567777777777776,0.011,Increasing
152381,Saint Mary-of-the-Woods College,private_nonprofit,Rural,"1,000 - 4,999",39.508546,-87.463791,simpson,0.0572592592592593,0.02,Increasing
152390,Saint Mary's College,private_nonprofit,Not_Reported,"1,000 - 4,999",41.707274,-86.256947,simpson,0.1905925925925926,0.014,Increasing
152530,Taylor University,private_nonprofit,Town,"1,000 - 4,999",40.456246,-85.497034,simpson,0.1135185185185184,0.009,Unchanged
152567,Trine University,private_nonprofit,Town,"1,000 - 4,999",41.632502,-85.008009,simpson,0.1025555555555555,0.01,Increasing
152600,Valparaiso University,private_nonprofit,Not_Reported,"1,000 - 4,999",41.462239,-87.040172,simpson,0.184111111111111,0.017,Increasing
152673,Wabash College,private_nonprofit,Town,"< 1,000",40.037588,-86.906,simpson,0.2415925925925925,0.011,Increasing
152798,Allen College,private_nonprofit,City,"< 1,000",42.530084,-92.340148,simpson,0.0555925925925925,0.009,Unchanged
152992,Briar Cliff University,private_nonprofit,City,"1,000 - 4,999",42.526443,-96.428444,simpson,0.1913333333333333,0.024,Increasing
153001,Buena Vista University,private_nonprofit,Town,"1,000 - 4,999",42.642255,-95.208529,simpson,0.1008518518518517,0.01,Increasing
153108,Central College,private_nonprofit,Town,"1,000 - 4,999",41.401539,-92.922199,simpson,0.1012592592592592,0.008,Unchanged
153126,Clarke University,private_nonprofit,City,"< 1,000",42.509475,-90.690487,simpson,0.0463333333333333,0.024,Increasing
153144,Coe College,private_nonprofit,City,"1,000 - 4,999",41.988263,-91.658192,simpson,0.1514074074074074,0.025,Increasing
153162,Cornell College,private_nonprofit,Town,"1,000 - 4,999",41.924554,-91.423741,simpson,0.3308518518518517,0.01,Increasing
153241,Divine Word College,private_nonprofit,Rural,"< 1,000",42.441721,-90.934578,simpson,0.5771481481481477,-0.044,Decreasing
153250,Dordt University,private_nonprofit,Town,"1,000 - 4,999",43.082527,-96.166562,simpson,0.0246296296296296,0.01,Increasing
153269,Drake University,private_nonprofit,City,"1,000 - 4,999",41.60129,-93.652163,simpson,0.1918518518518517,0.007,Unchanged
153278,University of Dubuque,private_nonprofit,City,"1,000 - 4,999",42.49726,-90.693428,simpson,0.2544814814814813,0.012,Increasing
153320,Faith Baptist Bible College and Theological Seminary,private_nonprofit,Not_Reported,"< 1,000",41.737082,-93.624422,simpson,0.170111111111111,-0.011,Decreasing
153366,Graceland University-Lamoni,private_nonprofit,Rural,"1,000 - 4,999",40.615966,-93.924893,simpson,0.3200370370370369,0.008,Unchanged
153375,Grand View University,private_nonprofit,City,"1,000 - 4,999",41.620813,-93.604352,simpson,0.2181851851851851,0.016,Increasing
153384,Grinnell College,private_nonprofit,Town,"1,000 - 4,999",41.747952,-92.722094,simpson,0.4258518518518516,0.01,Increasing
153603,Iowa State University,public,City,"20,000 +",42.026212,-93.648504,simpson,0.1555555555555554,0.011,Increasing
153621,Iowa Wesleyan University,private_nonprofit,Town,"< 1,000",40.973791,-91.552459,simpson,0.2353333333333331,0.022,Increasing
153658,University of Iowa,public,City,"20,000 +",41.661935,-91.536425,simpson,0.147148148148148,0.021,Increasing
153825,Loras College,private_nonprofit,City,"1,000 - 4,999",42.503908,-90.679023,simpson,0.0795185185185184,0.016,Increasing
153834,Luther College,private_nonprofit,Town,"1,000 - 4,999",43.312304,-91.802809,simpson,0.1142222222222222,0.006,Unchanged
153861,Maharishi International University,private_nonprofit,Town,"1,000 - 4,999",41.017781,-91.967306,simpson,0.3089259259259257,0.032,Increasing
153977,Mercy College of Health Sciences,private_nonprofit,City,"< 1,000",41.594559,-93.626238,simpson,0.0593703703703704,0.023,Increasing
154004,Morningside College,private_nonprofit,City,"1,000 - 4,999",42.473891,-96.359464,simpson,0.0872592592592592,0.015,Increasing
154013,Mount Mercy University,private_nonprofit,City,"1,000 - 4,999",42.001931,-91.650991,simpson,0.1029999999999999,0.016,Increasing
154095,University of Northern Iowa,public,City,"5,000 - 9,999",42.514923,-92.459703,simpson,0.0984074074074073,0.009,Unchanged
154101,Northwestern College,private_nonprofit,Town,"1,000 - 4,999",42.999007,-96.058772,simpson,0.1084444444444444,0.007,Unchanged
154174,Palmer College of Chiropractic,private_nonprofit,City,"1,000 - 4,999",41.529021,-90.574607,simpson,0.2728518518518518,-0.001,Unchanged
154235,Saint Ambrose University,private_nonprofit,City,"1,000 - 4,999",41.54065,-90.579854,simpson,0.131037037037037,0.015,Increasing
154350,Simpson College,private_nonprofit,Town,"1,000 - 4,999",41.365503,-93.563471,simpson,0.1216666666666666,0.007,Unchanged
154493,Upper Iowa University,private_nonprofit,Rural,"1,000 - 4,999",42.838283,-91.799543,simpson,0.3428148148148148,0.011,Increasing
154527,Wartburg College,private_nonprofit,Town,"1,000 - 4,999",42.7277,-92.483387,simpson,0.1004814814814814,0.014,Increasing
154590,William Penn University,private_nonprofit,Town,"1,000 - 4,999",41.310111,-92.647095,simpson,0.2742222222222222,0.021,Increasing
154688,Baker University,private_nonprofit,Town,"1,000 - 4,999",38.778712,-95.187346,simpson,0.2871111111111111,0.008,Unchanged
154712,Benedictine College,private_nonprofit,Town,"1,000 - 4,999",39.572646,-95.111473,simpson,0.2097777777777777,0.002,Unchanged
154721,Bethany College,private_nonprofit,Town,"< 1,000",38.580598,-97.67367,simpson,0.2802222222222221,0.028,Increasing
154749,Bethel College-North Newton,private_nonprofit,Town,"< 1,000",38.075169,-97.343256,simpson,0.2222592592592591,0.02,Increasing
154855,Central Christian College of Kansas,private_nonprofit,Town,"< 1,000",38.357978,-97.668597,simpson,0.1777407407407406,0.04,Increasing
155025,Emporia State University,public,Town,"5,000 - 9,999",38.414784,-96.179021,simpson,0.2318518518518519,0.012,Increasing
155061,Fort Hays State University,public,Town,"10,000 - 19,999",38.872156,-99.342503,simpson,0.1956666666666666,0.015,Increasing
155070,Barclay College,private_nonprofit,Rural,"< 1,000",37.62012,-99.105351,simpson,0.0275555555555554,0.04,Increasing
155089,Friends University,private_nonprofit,City,"1,000 - 4,999",37.678459,-97.367048,simpson,0.287296296296296,0.013,Increasing
155317,University of Kansas,public,City,"20,000 +",38.958549,-95.247567,simpson,0.2257037037037035,0.018,Increasing
155335,Newman University,private_nonprofit,City,"1,000 - 4,999",37.672643,-97.37768,simpson,0.3608148148148146,0.012,Increasing
155399,Kansas State University,public,City,"20,000 +",39.188648,-96.581077,simpson,0.1696666666666666,0.013,Increasing
155414,Kansas Wesleyan University,private_nonprofit,Town,"< 1,000",38.813795,-97.607973,simpson,0.3344444444444443,0.014,Increasing
155496,Manhattan Christian College,private_nonprofit,City,"< 1,000",39.184806,-96.579383,simpson,0.1126666666666666,0.014,Increasing
155511,McPherson College,private_nonprofit,Town,"< 1,000",38.371422,-97.642996,simpson,0.2945185185185184,0.021,Increasing
155520,MidAmerica Nazarene University,private_nonprofit,Not_Reported,"1,000 - 4,999",38.875615,-94.781635,simpson,0.4077037037037035,-0.003,Unchanged
155627,Ottawa University-Ottawa,private_nonprofit,Town,"< 1,000",38.603173,-95.264187,simpson,0.2615185185185184,0.03,Increasing
155636,Ottawa University-Kansas City,private_nonprofit,City,"< 1,000",38.932055,-94.635461,simpson,0.283037037037037,0.014,Increasing
155681,Pittsburg State University,public,Town,"5,000 - 9,999",37.392071,-94.702473,simpson,0.2102222222222221,0.008,Unchanged
155812,University of Saint Mary,private_nonprofit,Town,"1,000 - 4,999",39.279396,-94.906743,simpson,0.2853703703703703,0.025,Increasing
155900,Southwestern College,private_nonprofit,Town,"1,000 - 4,999",37.248608,-96.975405,simpson,0.3715185185185186,0.015,Increasing
155937,Sterling College,private_nonprofit,Rural,"< 1,000",38.219937,-98.208644,simpson,0.2349999999999999,0.025,Increasing
155973,Tabor College,private_nonprofit,Town,"< 1,000",38.348606,-97.200949,simpson,0.2419999999999999,0.024,Increasing
156082,Washburn University,public,City,"5,000 - 9,999",39.033778,-95.702222,simpson,0.2111111111111109,0.016,Increasing
156125,Wichita State University,public,City,"10,000 - 19,999",37.718882,-97.292361,simpson,0.346296296296296,0.016,Increasing
156189,Alice Lloyd College,private_nonprofit,Rural,"< 1,000",37.335087,-82.875068,simpson,0.011,0.002,Unchanged
156213,Asbury University,private_nonprofit,Town,"1,000 - 4,999",37.862029,-84.662606,simpson,0.1087407407407407,0.012,Increasing
156286,Bellarmine University,private_nonprofit,City,"1,000 - 4,999",38.219279,-85.704997,simpson,0.1609259259259259,0.011,Increasing
156295,Berea College,private_nonprofit,Town,"1,000 - 4,999",37.57202,-84.292893,simpson,0.3285185185185184,0.024,Increasing
156356,Brescia University,private_nonprofit,City,"< 1,000",37.769041,-87.111639,simpson,0.1304074074074073,0.028,Increasing
156365,Campbellsville University,private_nonprofit,Town,"10,000 - 19,999",37.343342,-85.348943,simpson,0.2199259259259257,0.004,Unchanged
156408,Centre College,private_nonprofit,Town,"1,000 - 4,999",37.645709,-84.779392,simpson,0.1372592592592592,0.02,Increasing
156417,Clear Creek Baptist Bible College,private_nonprofit,Rural,"< 1,000",36.725236,-83.727702,simpson,-0.0463333333333333,0.021,Increasing
156541,University of the Cumberlands,private_nonprofit,Town,"10,000 - 19,999",36.737048,-84.161646,simpson,0.1673333333333332,0.001,Unchanged
156620,Eastern Kentucky University,public,Town,"10,000 - 19,999",37.740845,-84.300796,simpson,0.1487407407407407,0.007,Unchanged
156745,Georgetown College,private_nonprofit,Town,"1,000 - 4,999",38.207615,-84.553767,simpson,0.1496296296296295,0.01,Increasing
157030,Kentucky Mountain Bible College,private_nonprofit,Rural,"< 1,000",37.603443,-83.438765,simpson,0.2080370370370369,-0.016,Decreasing
157058,Kentucky State University,public,Town,"1,000 - 4,999",38.201427,-84.855402,simpson,0.4637037037037035,0.004,Unchanged
157076,Kentucky Wesleyan College,private_nonprofit,City,"< 1,000",37.744489,-87.119658,simpson,0.2058888888888888,0.008,Unchanged
157085,University of Kentucky,public,City,"20,000 +",38.038911,-84.504747,simpson,0.1742222222222221,0.016,Increasing
157100,Kentucky Christian University,private_nonprofit,Town,"< 1,000",38.338805,-82.945561,simpson,0.1014074074074074,0.015,Increasing
157216,Lindsey Wilson College,private_nonprofit,Town,"1,000 - 4,999",37.101502,-85.299997,simpson,0.1735185185185184,0.009,Unchanged
157289,University of Louisville,public,City,"20,000 +",38.216862,-85.760412,simpson,0.2983703703703702,0.011,Increasing
157377,Midway University,private_nonprofit,Rural,"1,000 - 4,999",38.146126,-84.678142,simpson,0.1943333333333333,0.015,Increasing
157386,Morehead State University,public,Town,"5,000 - 9,999",38.186768,-83.434021,simpson,0.0814814814814814,0.006,Unchanged
157401,Murray State University,public,Town,"5,000 - 9,999",36.612419,-88.323629,simpson,0.1622592592592593,0.005,Unchanged
157447,Northern Kentucky University,public,Not_Reported,"10,000 - 19,999",39.029714,-84.463483,simpson,0.1318518518518518,0.012,Increasing
157535,University of Pikeville,private_nonprofit,Town,"1,000 - 4,999",37.479232,-82.521063,simpson,0.1661851851851851,0.002,Unchanged
157748,The Southern Baptist Theological Seminary,private_nonprofit,City,"1,000 - 4,999",38.248216,-85.687649,simpson,0.1575555555555555,-0.005,Unchanged
157757,Spalding University,private_nonprofit,City,"1,000 - 4,999",38.242407,-85.757725,simpson,0.5004074074074072,-0.012,Decreasing
157809,Thomas More University,private_nonprofit,Not_Reported,"1,000 - 4,999",39.022963,-84.568923,simpson,0.1287407407407406,0.012,Increasing
157818,Transylvania University,private_nonprofit,City,"< 1,000",38.052983,-84.493202,simpson,0.1184074074074073,0.014,Increasing
157863,Union College,private_nonprofit,Town,"1,000 - 4,999",36.870875,-83.888477,simpson,0.1666666666666665,0.012,Increasing
157951,Western Kentucky University,public,City,"10,000 - 19,999",36.985035,-86.456828,simpson,0.1869259259259258,0.008,Unchanged
158477,Centenary College of Louisiana,private_nonprofit,City,"< 1,000",32.483335,-93.730834,simpson,0.2521851851851852,0.029,Increasing
158802,Dillard University,private_nonprofit,City,"1,000 - 4,999",29.996587,-90.06464,simpson,0.0216296296296296,0.004,Unchanged
159009,Grambling State University,public,Town,"5,000 - 9,999",32.523797,-92.713245,simpson,0.0634074074074073,0.004,Unchanged
159373,Louisiana State University Health Sciences Center-New Orleans,public,City,"1,000 - 4,999",29.957272,-90.083145,simpson,0.3752592592592592,0.001,Unchanged
159382,Louisiana State University-Alexandria,public,Rural,"1,000 - 4,999",31.178616,-92.414409,simpson,0.2501111111111109,0.024,Increasing
159391,Louisiana State University and Agricultural & Mechanical College,public,City,"20,000 +",30.414986,-91.178921,simpson,0.2673333333333331,0.016,Increasing
159416,Louisiana State University-Shreveport,public,City,"5,000 - 9,999",32.428465,-93.70561,simpson,0.4016296296296293,0.014,Increasing
159568,Louisiana College,private_nonprofit,Not_Reported,"1,000 - 4,999",31.324528,-92.425973,simpson,0.2848518518518518,0.013,Increasing
159647,Louisiana Tech University,public,Town,"10,000 - 19,999",32.528297,-92.649963,simpson,0.2842962962962962,0.007,Unchanged
159656,Loyola University New Orleans,private_nonprofit,City,"1,000 - 4,999",29.936141,-90.120417,simpson,0.4818888888888887,0.015,Increasing
159717,McNeese State University,public,City,"5,000 - 9,999",30.178187,-93.217222,simpson,0.331148148148148,0.009,Unchanged
159939,University of New Orleans,public,City,"5,000 - 9,999",30.027704,-90.067142,simpson,0.4779259259259258,0.015,Increasing
159948,New Orleans Baptist Theological Seminary,private_nonprofit,City,"1,000 - 4,999",30.004336,-90.043439,simpson,0.3808888888888887,0.003,Unchanged
159966,Nicholls State University,public,City,"5,000 - 9,999",29.794486,-90.801571,simpson,0.317222222222222,0.012,Increasing
159993,University of Louisiana at Monroe,public,City,"5,000 - 9,999",32.527748,-92.07374,simpson,0.4576296296296295,0.001,Unchanged
160038,Northwestern State University of Louisiana,public,Town,"10,000 - 19,999",31.750666,-93.097797,simpson,0.4927777777777777,0.008,Unchanged
160065,University of Holy Cross,private_nonprofit,City,"1,000 - 4,999",29.912003,-89.99445,simpson,0.4607407407407405,0.016,Increasing
160074,Franciscan Missionaries of Our Lady University,private_nonprofit,City,"1,000 - 4,999",30.401379,-91.110587,simpson,0.4881111111111109,0.0,Unchanged
160409,Saint Joseph Seminary College,private_nonprofit,Rural,"< 1,000",30.526778,-90.113621,simpson,0.3461851851851851,0.017,Increasing
160612,Southeastern Louisiana University,public,City,"10,000 - 19,999",30.514652,-90.468676,simpson,0.2912962962962964,0.021,Increasing
160621,Southern University and A & M College,public,City,"5,000 - 9,999",30.524558,-91.190105,simpson,0.0692222222222221,0.006,Unchanged
160630,Southern University at New Orleans,public,City,"1,000 - 4,999",30.026162,-90.044912,simpson,0.0745925925925925,0.002,Unchanged
160658,University of Louisiana at Lafayette,public,City,"10,000 - 19,999",30.212191,-92.020165,simpson,0.3425185185185183,0.012,Increasing
160755,Tulane University of Louisiana,private_nonprofit,City,"10,000 - 19,999",29.940069,-90.122144,simpson,0.3275555555555554,0.005,Unchanged
160904,Xavier University of Louisiana,private_nonprofit,City,"1,000 - 4,999",29.964162,-90.107307,simpson,0.2173333333333332,0.006,Unchanged
160959,College of the Atlantic,private_nonprofit,Town,"< 1,000",44.395258,-68.221517,simpson,0.120148148148148,0.012,Increasing
160977,Bates College,private_nonprofit,City,"1,000 - 4,999",44.105299,-70.203333,simpson,0.2985925925925924,0.01,Increasing
161004,Bowdoin College,private_nonprofit,Town,"1,000 - 4,999",43.907134,-69.963942,simpson,0.4867407407407404,0.003,Unchanged
161086,Colby College,private_nonprofit,Town,"1,000 - 4,999",44.564211,-69.66337,simpson,0.3316296296296296,0.009,Unchanged
161217,University of Maine at Augusta,public,Town,"1,000 - 4,999",44.337746,-69.796396,simpson,0.1026666666666666,0.009,Unchanged
161226,University of Maine at Farmington,public,Town,"1,000 - 4,999",44.666911,-70.147121,simpson,0.0742592592592592,0.004,Unchanged
161235,University of Maine at Fort Kent,public,Rural,"1,000 - 4,999",47.250389,-68.589319,simpson,0.0951481481481481,0.012,Increasing
161244,University of Maine at Machias,public,Rural,"< 1,000",44.708803,-67.458025,simpson,0.1643703703703702,0.008,Unchanged
161253,University of Maine,public,Not_Reported,"10,000 - 19,999",44.899257,-68.669332,simpson,0.0802222222222222,0.013,Increasing
161299,Maine Maritime Academy,public,Rural,"< 1,000",44.389654,-68.804347,simpson,0.0335925925925926,0.005,Unchanged
161341,University of Maine at Presque Isle,public,Rural,"1,000 - 4,999",46.672285,-68.016343,simpson,0.1978148148148146,0.001,Unchanged
161457,University of New England,private_nonprofit,Not_Reported,"5,000 - 9,999",43.458591,-70.38535,simpson,0.1185925925925925,-0.0,Unchanged
161509,Maine College of Art,private_nonprofit,City,"< 1,000",43.655743,-70.261015,simpson,0.0998518518518518,0.018,Increasing
161518,Saint Joseph's College of Maine,private_nonprofit,Rural,"1,000 - 4,999",43.826314,-70.483373,simpson,0.1805925925925925,-0.006,Unchanged
161554,University of Southern Maine,public,City,"5,000 - 9,999",43.662863,-70.274247,simpson,0.2057407407407406,0.006,Unchanged
161563,Thomas College,private_nonprofit,Rural,"1,000 - 4,999",44.524909,-69.664734,simpson,0.0649999999999999,0.02,Increasing
161572,Unity College,private_nonprofit,Rural,"1,000 - 4,999",44.603165,-69.332276,simpson,0.1381111111111111,0.0,Unchanged
161873,University of Baltimore,public,City,"1,000 - 4,999",39.305834,-76.616591,simpson,0.5926296296296295,0.006,Unchanged
162007,Bowie State University,public,Not_Reported,"5,000 - 9,999",39.018185,-76.759721,simpson,0.1297407407407407,0.014,Increasing
162061,Capitol Technology University,private_nonprofit,Not_Reported,"< 1,000",39.046673,-76.850231,simpson,0.6457037037037036,-0.002,Unchanged
162210,Washington Adventist University,private_nonprofit,Not_Reported,"< 1,000",38.986349,-77.000608,simpson,0.4721481481481479,0.001,Unchanged
162283,Coppin State University,public,City,"1,000 - 4,999",39.311258,-76.658687,simpson,0.0986296296296296,0.008,Unchanged
162584,Frostburg State University,public,Not_Reported,"1,000 - 4,999",39.650918,-78.934293,simpson,0.3559999999999997,0.022,Increasing
162654,Goucher College,private_nonprofit,City,"1,000 - 4,999",39.410175,-76.594843,simpson,0.2585185185185185,0.029,Increasing
162760,Hood College,private_nonprofit,City,"1,000 - 4,999",39.420631,-77.419049,simpson,0.2845185185185183,0.026,Increasing
162928,Johns Hopkins University,private_nonprofit,City,"20,000 +",39.328977,-76.621595,simpson,0.517185185185185,0.019,Increasing
163046,Loyola University Maryland,private_nonprofit,City,"5,000 - 9,999",39.346358,-76.621872,simpson,0.2095555555555553,0.019,Increasing
163204,University of Maryland Global Campus,public,Not_Reported,"20,000 +",38.912706,-76.847584,simpson,0.5921111111111107,0.008,Unchanged
163259,University of Maryland Baltimore,public,City,"5,000 - 9,999",39.286864,-76.623983,simpson,0.5737037037037035,0.009,Unchanged
163268,University of Maryland-Baltimore County,public,Not_Reported,"10,000 - 19,999",39.256686,-76.711607,simpson,0.5945185185185182,0.011,Increasing
163286,University of Maryland-College Park,public,Not_Reported,"20,000 +",38.988178,-76.944721,simpson,0.5450740740740739,0.011,Increasing
163295,Maryland Institute College of Art,private_nonprofit,City,"1,000 - 4,999",39.308792,-76.621033,simpson,0.4082222222222219,0.024,Increasing
163338,University of Maryland Eastern Shore,public,Town,"1,000 - 4,999",38.207386,-75.686852,simpson,0.3506296296296296,0.007,Unchanged
163453,Morgan State University,public,City,"5,000 - 9,999",39.344161,-76.585565,simpson,0.2224074074074072,0.002,Unchanged
163462,Mount St. Mary's University,private_nonprofit,Town,"1,000 - 4,999",39.681705,-77.351887,simpson,0.2562962962962963,0.026,Increasing
163532,Ner Israel Rabbinical College,private_nonprofit,Not_Reported,"< 1,000",39.388021,-76.753526,simpson,-0.0,0.0,Unchanged
163578,Notre Dame of Maryland University,private_nonprofit,City,"1,000 - 4,999",39.350612,-76.619739,simpson,0.4269259259259259,0.023,Increasing
163851,Salisbury University,public,Not_Reported,"5,000 - 9,999",38.34648,-75.604815,simpson,0.2732222222222222,0.014,Increasing
163912,St. Mary's College of Maryland,public,Not_Reported,"1,000 - 4,999",38.190904,-76.429097,simpson,0.2397037037037036,0.021,Increasing
163976,St. John's College,private_nonprofit,Not_Reported,"< 1,000",38.981598,-76.491359,simpson,0.1809259259259258,0.011,Increasing
164076,Towson University,public,City,"20,000 +",39.393622,-76.611164,simpson,0.3117407407407407,0.028,Increasing
164155,United States Naval Academy,public,Not_Reported,"1,000 - 4,999",38.980507,-76.481692,simpson,0.4288888888888889,0.014,Increasing
164173,Stevenson University,private_nonprofit,Rural,"1,000 - 4,999",39.421988,-76.702092,simpson,0.360222222222222,0.023,Increasing
164216,Washington College,private_nonprofit,Town,"1,000 - 4,999",39.217329,-76.06878,simpson,0.0846296296296296,0.025,Increasing
164270,McDaniel College,private_nonprofit,Not_Reported,"1,000 - 4,999",39.584231,-77.001992,simpson,0.1680740740740741,0.032,Increasing
164368,Hult International Business School,private_nonprofit,City,"1,000 - 4,999",42.369968,-71.070645,simpson,-0.6433333333333335,0.14,Increasing
164447,American International College,private_nonprofit,City,"1,000 - 4,999",42.112346,-72.558338,simpson,0.550074074074074,0.011,Increasing
164465,Amherst College,private_nonprofit,Not_Reported,"1,000 - 4,999",42.372459,-72.518493,simpson,0.6765925925925926,0.001,Unchanged
164492,Anna Maria College,private_nonprofit,Rural,"1,000 - 4,999",42.330542,-71.91896,simpson,0.1993333333333333,0.02,Increasing
164562,Assumption University,private_nonprofit,City,"1,000 - 4,999",42.294226,-71.828991,simpson,0.154074074074074,0.019,Increasing
164580,Babson College,private_nonprofit,Not_Reported,"1,000 - 4,999",42.297017,-71.264057,simpson,0.5619259259259257,0.008,Unchanged
164614,Boston Baptist College,private_nonprofit,City,"< 1,000",42.254037,-71.1103,simpson,0.1808148148148147,0.002,Unchanged
164632,Bay Path University,private_nonprofit,Not_Reported,"1,000 - 4,999",42.055088,-72.583382,simpson,0.4732222222222221,0.004,Unchanged
164720,Becker College,private_nonprofit,City,"1,000 - 4,999",42.269171,-71.811894,simpson,0.2838888888888887,0.009,Unchanged
164739,Bentley University,private_nonprofit,City,"5,000 - 9,999",42.385995,-71.222839,simpson,0.3732962962962963,0.005,Unchanged
164748,Berklee College of Music,private_nonprofit,City,"5,000 - 9,999",42.346646,-71.089405,simpson,0.4270000000000001,0.014,Increasing
164872,Boston Architectural College,private_nonprofit,City,"< 1,000",42.348467,-71.085786,simpson,0.2397777777777777,0.042,Increasing
164924,Boston College,private_nonprofit,City,"10,000 - 19,999",42.336213,-71.169242,simpson,0.4575925925925925,0.003,Unchanged
164988,Boston University,private_nonprofit,City,"20,000 +",42.351118,-71.107942,simpson,0.474962962962963,0.017,Increasing
165015,Brandeis University,private_nonprofit,City,"5,000 - 9,999",42.365727,-71.260155,simpson,0.4565555555555554,0.013,Increasing
165024,Bridgewater State University,public,Not_Reported,"10,000 - 19,999",41.98749,-70.974553,simpson,0.1858518518518518,0.02,Increasing
165167,Cambridge College,private_nonprofit,City,"1,000 - 4,999",42.381091,-71.072646,simpson,0.6884814814814813,0.0,Unchanged
165334,Clark University,private_nonprofit,City,"1,000 - 4,999",42.249987,-71.823356,simpson,0.2383333333333332,0.023,Increasing
165529,Curry College,private_nonprofit,Not_Reported,"1,000 - 4,999",42.238061,-71.116539,simpson,0.2428518518518518,0.019,Increasing
165574,Dean College,private_nonprofit,Not_Reported,"1,000 - 4,999",42.085634,-71.397813,simpson,0.0982962962962963,0.035,Increasing
165644,Eastern Nazarene College,private_nonprofit,Not_Reported,"< 1,000",42.271228,-71.011079,simpson,0.4637777777777777,0.01,Increasing
165662,Emerson College,private_nonprofit,City,"5,000 - 9,999",42.352202,-71.065384,simpson,0.3856666666666665,0.005,Unchanged
165671,Emmanuel College,private_nonprofit,City,"1,000 - 4,999",42.340602,-71.103634,simpson,0.3194814814814813,0.007,Unchanged
165699,Endicott College,private_nonprofit,Not_Reported,"1,000 - 4,999",42.553296,-70.840847,simpson,0.1092592592592592,0.009,Unchanged
165802,Fisher College,private_nonprofit,City,"1,000 - 4,999",42.355253,-71.074125,simpson,0.4619999999999998,0.019,Increasing
165820,Fitchburg State University,public,Not_Reported,"5,000 - 9,999",42.588298,-71.789666,simpson,0.175074074074074,0.026,Increasing
165866,Framingham State University,public,City,"1,000 - 4,999",42.297116,-71.437565,simpson,0.2073703703703703,0.029,Increasing
165936,Gordon College,private_nonprofit,Not_Reported,"1,000 - 4,999",42.590567,-70.82151,simpson,0.1108148148148147,0.032,Increasing
166018,Hampshire College,private_nonprofit,Not_Reported,"< 1,000",42.325852,-72.531469,simpson,0.3021481481481478,0.016,Increasing
166027,Harvard University,private_nonprofit,City,"20,000 +",42.374471,-71.118313,simpson,0.6038888888888888,0.009,Unchanged
166045,Hebrew College,private_nonprofit,City,"< 1,000",42.325677,-71.189226,simpson,-0.0,0.0,Unchanged
166054,Hellenic College-Holy Cross Greek Orthodox School of Theology,private_nonprofit,Not_Reported,"< 1,000",42.317018,-71.129418,simpson,0.1372222222222222,-0.013,Decreasing
166124,College of the Holy Cross,private_nonprofit,City,"1,000 - 4,999",42.23752,-71.808214,simpson,0.3701851851851852,0.005,Unchanged
166391,Lasell University,private_nonprofit,City,"1,000 - 4,999",42.342148,-71.24347,simpson,0.2941111111111111,0.007,Unchanged
166452,Lesley University,private_nonprofit,City,"1,000 - 4,999",42.38012,-71.117303,simpson,0.2388148148148146,0.028,Increasing
166513,University of Massachusetts-Lowell,public,Not_Reported,"10,000 - 19,999",42.652864,-71.326809,simpson,0.377185185185185,0.014,Increasing
166629,University of Massachusetts-Amherst,public,Not_Reported,"20,000 +",42.385999,-72.526728,simpson,0.308148148148148,0.013,Increasing
166638,University of Massachusetts-Boston,public,City,"10,000 - 19,999",42.312881,-71.036865,simpson,0.5612222222222222,0.015,Increasing
166656,MCPHS University,private_nonprofit,City,"5,000 - 9,999",42.336825,-71.101244,simpson,0.4745185185185184,0.016,Increasing
166674,Massachusetts College of Art and Design,public,City,"1,000 - 4,999",42.336862,-71.099275,simpson,0.2018518518518519,0.027,Increasing
166683,Massachusetts Institute of Technology,private_nonprofit,City,"10,000 - 19,999",42.359243,-71.093226,simpson,0.6739629629629629,0.005,Unchanged
166692,Massachusetts Maritime Academy,public,Not_Reported,"1,000 - 4,999",41.739072,-70.624084,simpson,0.1072592592592592,0.005,Unchanged
166850,Merrimack College,private_nonprofit,Not_Reported,"5,000 - 9,999",42.668344,-71.124216,simpson,0.2067037037037036,0.005,Unchanged
166869,MGH Institute of Health Professions,private_nonprofit,City,"1,000 - 4,999",42.375018,-71.054002,simpson,0.3848518518518516,0.003,Unchanged
166911,Montserrat College of Art,private_nonprofit,Not_Reported,"< 1,000",42.550212,-70.876131,simpson,0.0894074074074073,0.046,Increasing
166939,Mount Holyoke College,private_nonprofit,Not_Reported,"1,000 - 4,999",42.256838,-72.575511,simpson,0.4922222222222221,0.007,Unchanged
167057,The New England Conservatory of Music,private_nonprofit,City,"< 1,000",42.340946,-71.08629,simpson,0.4154444444444443,0.016,Increasing
167260,Nichols College,private_nonprofit,Not_Reported,"1,000 - 4,999",42.044033,-71.930283,simpson,0.176148148148148,0.019,Increasing
167288,Massachusetts College of Liberal Arts,public,Town,"1,000 - 4,999",42.691361,-73.102817,simpson,0.1804074074074074,0.023,Increasing
167358,Northeastern University,private_nonprofit,City,"20,000 +",42.339992,-71.088782,simpson,0.3790740740740741,0.019,Increasing
167394,College of Our Lady of the Elms,private_nonprofit,Not_Reported,"1,000 - 4,999",42.141781,-72.60154,simpson,0.3638148148148148,0.013,Increasing
167455,Pine Manor College,private_nonprofit,Not_Reported,"< 1,000",42.320827,-71.156464,simpson,0.6903333333333331,-0.003,Unchanged
167598,Regis College,private_nonprofit,Not_Reported,"1,000 - 4,999",42.351291,-71.310561,simpson,0.49637037037037,0.002,Unchanged
167677,Saint John's Seminary,private_nonprofit,City,"< 1,000",42.344146,-71.161998,simpson,0.0448888888888888,0.026,Increasing
167729,Salem State University,public,Not_Reported,"5,000 - 9,999",42.503575,-70.890234,simpson,0.3268148148148148,0.019,Increasing
167783,Simmons University,private_nonprofit,City,"5,000 - 9,999",42.3393,-71.099967,simpson,0.361185185185185,0.012,Increasing
167835,Smith College,private_nonprofit,Not_Reported,"1,000 - 4,999",42.318111,-72.638097,simpson,0.5768518518518517,0.002,Unchanged
167899,Springfield College,private_nonprofit,City,"1,000 - 4,999",42.101576,-72.556751,simpson,0.1608888888888889,0.013,Increasing
167987,University of Massachusetts-Dartmouth,public,Not_Reported,"5,000 - 9,999",41.62869,-71.004552,simpson,0.2094074074074072,0.031,Increasing
167996,Stonehill College,private_nonprofit,Not_Reported,"1,000 - 4,999",42.05905,-71.080632,simpson,0.1102962962962963,0.014,Increasing
168005,Suffolk University,private_nonprofit,City,"5,000 - 9,999",42.357945,-71.060917,simpson,0.4075555555555553,0.02,Increasing
168148,Tufts University,private_nonprofit,Not_Reported,"10,000 - 19,999",42.40855,-71.118293,simpson,0.4584814814814809,0.005,Unchanged
168218,Wellesley College,private_nonprofit,Not_Reported,"1,000 - 4,999",42.291554,-71.306605,simpson,0.6097407407407408,0.009,Unchanged
168227,Wentworth Institute of Technology,private_nonprofit,City,"1,000 - 4,999",42.336632,-71.094983,simpson,0.2247777777777777,0.022,Increasing
168254,Western New England University,private_nonprofit,City,"1,000 - 4,999",42.115017,-72.520466,simpson,0.1743333333333332,0.015,Increasing
168263,Westfield State University,public,Not_Reported,"5,000 - 9,999",42.132698,-72.796503,simpson,0.1554444444444443,0.021,Increasing
168281,Wheaton College,private_nonprofit,Not_Reported,"1,000 - 4,999",41.966637,-71.183979,simpson,0.2726296296296294,0.016,Increasing
168342,Williams College,private_nonprofit,Town,"1,000 - 4,999",42.712725,-73.203132,simpson,0.5065555555555552,0.013,Increasing
168421,Worcester Polytechnic Institute,private_nonprofit,City,"5,000 - 9,999",42.274853,-71.808339,simpson,0.2823333333333332,0.011,Increasing
168430,Worcester State University,public,City,"5,000 - 9,999",42.267526,-71.844018,simpson,0.2281481481481481,0.023,Increasing
168528,Adrian College,private_nonprofit,Town,"1,000 - 4,999",41.898591,-84.061481,simpson,0.1588888888888888,0.014,Increasing
168546,Albion College,private_nonprofit,Town,"1,000 - 4,999",42.245049,-84.745639,simpson,0.1197777777777778,0.022,Increasing
168591,Alma College,private_nonprofit,Town,"1,000 - 4,999",43.38004,-84.672053,simpson,0.1091851851851851,0.013,Increasing
168740,Andrews University,private_nonprofit,Town,"1,000 - 4,999",41.963859,-86.355815,simpson,0.6830370370370371,0.009,Unchanged
168786,Aquinas College,private_nonprofit,City,"1,000 - 4,999",42.96019,-85.628785,simpson,0.0644444444444444,0.024,Increasing
168847,Baker College,private_nonprofit,Town,"5,000 - 9,999",42.984804,-84.172404,simpson,0.3181851851851849,-0.004,Unchanged
169080,Calvin University,private_nonprofit,City,"1,000 - 4,999",42.929916,-85.587548,simpson,0.1406296296296295,0.017,Increasing
169248,Central Michigan University,public,Town,"10,000 - 19,999",43.591203,-84.77525,simpson,0.1434814814814814,0.015,Increasing
169327,Cleary University,private_nonprofit,Not_Reported,"< 1,000",42.586638,-83.879987,simpson,0.1523703703703703,0.009,Unchanged
169363,Concordia University-Ann Arbor,private_nonprofit,City,"1,000 - 4,999",42.273157,-83.68268,simpson,0.1215555555555556,0.023,Increasing
169442,College for Creative Studies,private_nonprofit,City,"1,000 - 4,999",42.361839,-83.062352,simpson,0.3449259259259256,0.009,Unchanged
169479,Davenport University,private_nonprofit,Not_Reported,"5,000 - 9,999",42.850013,-85.533519,simpson,0.3387407407407405,-0.003,Unchanged
169716,University of Detroit Mercy,private_nonprofit,City,"1,000 - 4,999",42.414222,-83.139158,simpson,0.4119259259259259,0.003,Unchanged
169798,Eastern Michigan University,public,Not_Reported,"10,000 - 19,999",42.251675,-83.627443,simpson,0.3490370370370369,0.011,Increasing
169910,Ferris State University,public,Town,"10,000 - 19,999",43.687724,-85.481925,simpson,0.2164814814814813,0.006,Unchanged
169983,Kettering University,private_nonprofit,City,"1,000 - 4,999",43.012468,-83.71282,simpson,0.2223703703703702,0.004,Unchanged
170000,Grace Christian University,private_nonprofit,Not_Reported,"1,000 - 4,999",42.919541,-85.692077,simpson,0.0697407407407408,0.044,Increasing
170037,Cornerstone University,private_nonprofit,City,"1,000 - 4,999",42.979966,-85.595328,simpson,0.2317407407407407,0.008,Unchanged
170082,Grand Valley State University,public,Not_Reported,"20,000 +",42.963001,-85.889826,simpson,0.1988148148148147,0.008,Unchanged
170091,Great Lakes Christian College,private_nonprofit,Not_Reported,"< 1,000",42.754249,-84.638714,simpson,0.1979259259259259,0.01,Increasing
170286,Hillsdale College,private_nonprofit,Town,"1,000 - 4,999",41.933682,-84.633195,simpson,0.999999999999999,0.0,Unchanged
170301,Hope College,private_nonprofit,City,"1,000 - 4,999",42.787298,-86.102089,simpson,0.147037037037037,0.012,Increasing
170532,Kalamazoo College,private_nonprofit,City,"1,000 - 4,999",42.290789,-85.601857,simpson,0.3206296296296294,0.022,Increasing
170639,Lake Superior State University,public,Town,"1,000 - 4,999",46.492849,-84.365573,simpson,0.1663333333333333,0.004,Unchanged
170675,Lawrence Technological University,private_nonprofit,City,"1,000 - 4,999",42.474072,-83.25003,simpson,0.2662962962962962,0.001,Unchanged
170806,Madonna University,private_nonprofit,City,"1,000 - 4,999",42.384323,-83.404722,simpson,0.3106666666666664,0.005,Unchanged
170967,Rochester University,private_nonprofit,Not_Reported,"1,000 - 4,999",42.667521,-83.144959,simpson,0.3914814814814814,-0.009,Decreasing
170976,University of Michigan-Ann Arbor,public,City,"20,000 +",42.275921,-83.742769,simpson,0.4138148148148147,0.008,Unchanged
171100,Michigan State University,public,City,"20,000 +",42.73212,-84.476111,simpson,0.2542222222222222,0.011,Increasing
171128,Michigan Technological University,public,Town,"5,000 - 9,999",47.11866,-88.548092,simpson,0.1094814814814813,0.002,Unchanged
171137,University of Michigan-Dearborn,public,City,"5,000 - 9,999",42.317287,-83.231417,simpson,0.370111111111111,0.004,Unchanged
171146,University of Michigan-Flint,public,City,"5,000 - 9,999",43.01875,-83.690276,simpson,0.3119629629629629,0.006,Unchanged
171456,Northern Michigan University,public,Town,"5,000 - 9,999",46.559751,-87.406568,simpson,0.0887407407407407,0.012,Increasing
171492,Northwood University,private_nonprofit,City,"1,000 - 4,999",43.628717,-84.27682,simpson,0.373111111111111,-0.005,Unchanged
171571,Oakland University,public,Not_Reported,"10,000 - 19,999",42.674573,-83.216418,simpson,0.2306666666666667,0.01,Increasing
171599,Olivet College,private_nonprofit,Rural,"1,000 - 4,999",42.442891,-84.923891,simpson,0.2493333333333332,0.01,Increasing
171881,Kuyper College,private_nonprofit,Not_Reported,"< 1,000",43.02195,-85.592657,simpson,0.149074074074074,0.004,Unchanged
172033,Sacred Heart Major Seminary,private_nonprofit,City,"< 1,000",42.375248,-83.111682,simpson,0.0643333333333333,0.025,Increasing
172051,Saginaw Valley State University,public,Not_Reported,"5,000 - 9,999",43.51176,-83.964273,simpson,0.1558888888888888,0.013,Increasing
172264,Siena Heights University,private_nonprofit,Town,"1,000 - 4,999",41.905624,-84.018841,simpson,0.356222222222222,0.0,Unchanged
172334,Spring Arbor University,private_nonprofit,Not_Reported,"1,000 - 4,999",42.206568,-84.556074,simpson,0.247148148148148,0.006,Unchanged
172440,Finlandia University,private_nonprofit,Town,"< 1,000",47.127868,-88.588756,simpson,0.0502592592592592,0.031,Increasing
172608,Walsh College,private_nonprofit,City,"1,000 - 4,999",42.573888,-83.147197,simpson,0.2063703703703702,0.002,Unchanged
172644,Wayne State University,public,City,"20,000 +",42.358994,-83.068998,simpson,0.5192592592592589,-0.001,Unchanged
172699,Western Michigan University,public,City,"10,000 - 19,999",42.282194,-85.613759,simpson,0.2244074074074072,0.016,Increasing
173045,Augsburg University,private_nonprofit,City,"1,000 - 4,999",44.966307,-93.240436,simpson,0.3021851851851848,0.029,Increasing
173124,Bemidji State University,public,Town,"1,000 - 4,999",47.482341,-94.874119,simpson,0.1214074074074073,0.01,Increasing
173142,Bethany Lutheran College,private_nonprofit,City,"< 1,000",44.166649,-93.990805,simpson,0.1046296296296295,0.005,Unchanged
173160,Bethel University,private_nonprofit,Not_Reported,"1,000 - 4,999",45.057655,-93.161663,simpson,0.1328148148148148,0.016,Increasing
173258,Carleton College,private_nonprofit,Town,"1,000 - 4,999",44.462318,-93.154666,simpson,0.3456666666666665,0.015,Increasing
173300,Concordia College at Moorhead,private_nonprofit,Not_Reported,"1,000 - 4,999",46.862482,-96.76749,simpson,0.090074074074074,0.006,Unchanged
173328,Concordia University-Saint Paul,private_nonprofit,City,"5,000 - 9,999",44.949759,-93.154861,simpson,0.3038148148148148,0.013,Increasing
173452,Martin Luther College,private_nonprofit,Town,"< 1,000",44.30526,-94.472326,simpson,0.0361851851851851,0.002,Unchanged
173647,Gustavus Adolphus College,private_nonprofit,Town,"1,000 - 4,999",44.323626,-93.972196,simpson,0.1609629629629629,0.014,Increasing
173665,Hamline University,private_nonprofit,City,"1,000 - 4,999",44.966246,-93.164479,simpson,0.2959259259259259,0.016,Increasing
173902,Macalester College,private_nonprofit,City,"1,000 - 4,999",44.938565,-93.168053,simpson,0.3840740740740739,0.004,Unchanged
173920,Minnesota State University-Mankato,public,City,"10,000 - 19,999",44.146712,-93.99945,simpson,0.1356296296296296,0.017,Increasing
174020,Metropolitan State University,public,City,"5,000 - 9,999",44.957256,-93.074361,simpson,0.4519259259259257,0.018,Increasing
174066,University of Minnesota-Twin Cities,public,City,"20,000 +",44.972851,-93.235464,simpson,0.2892962962962961,0.012,Increasing
174075,University of Minnesota-Crookston,public,Town,"1,000 - 4,999",47.802536,-96.606188,simpson,0.1886666666666666,0.011,Increasing
174127,Minneapolis College of Art and Design,private_nonprofit,City,"< 1,000",44.956988,-93.274705,simpson,0.2594074074074073,0.021,Increasing
174154,Herzing University-Minneapolis,private_nonprofit,Not_Reported,"< 1,000",44.975225,-93.404863,simpson,0.5604444444444444,-0.009,Decreasing
174233,University of Minnesota-Duluth,public,City,"10,000 - 19,999",46.817126,-92.084385,simpson,0.0915555555555555,0.013,Increasing
174251,University of Minnesota-Morris,public,Town,"1,000 - 4,999",45.589775,-95.899729,simpson,0.2729629629629628,0.023,Increasing
174358,Minnesota State University Moorhead,public,Not_Reported,"5,000 - 9,999",46.867153,-96.759532,simpson,0.1337037037037037,0.009,Unchanged
174437,North Central University,private_nonprofit,City,"1,000 - 4,999",44.968625,-93.261511,simpson,0.1638148148148147,0.013,Increasing
174491,University of Northwestern-St Paul,private_nonprofit,Not_Reported,"1,000 - 4,999",45.033703,-93.167822,simpson,0.1385555555555555,0.012,Increasing
174507,Northwestern Health Sciences University,private_nonprofit,City,"1,000 - 4,999",44.850963,-93.311222,simpson,0.1498518518518517,-0.007,Unchanged
174525,Oak Hills Christian College,private_nonprofit,Town,"< 1,000",47.425836,-94.901503,simpson,0.0201851851851851,0.025,Increasing
174747,College of Saint Benedict,private_nonprofit,Not_Reported,"1,000 - 4,999",45.561792,-94.319888,simpson,0.1006296296296295,0.022,Increasing
174783,Saint Cloud State University,public,City,"10,000 - 19,999",45.553227,-94.152657,simpson,0.1498148148148147,0.02,Increasing
174792,Saint Johns University,private_nonprofit,Rural,"1,000 - 4,999",45.580075,-94.393621,simpson,0.0887037037037036,0.019,Increasing
174817,Saint Mary's University of Minnesota,private_nonprofit,Town,"5,000 - 9,999",44.044736,-91.695449,simpson,0.2328148148148146,0.021,Increasing
174844,St Olaf College,private_nonprofit,Town,"1,000 - 4,999",44.461529,-93.182039,simpson,0.1734074074074074,0.019,Increasing
174862,Crown College,private_nonprofit,Rural,"1,000 - 4,999",44.885393,-93.743019,simpson,0.1851481481481481,0.017,Increasing
174899,The College of Saint Scholastica,private_nonprofit,City,"1,000 - 4,999",46.816082,-92.106134,simpson,0.1327037037037036,0.012,Increasing
174914,University of St Thomas,private_nonprofit,City,"5,000 - 9,999",44.943439,-93.188986,simpson,0.2151481481481481,0.002,Unchanged
175005,St Catherine University,private_nonprofit,City,"1,000 - 4,999",44.924926,-93.183761,simpson,0.3112592592592591,0.023,Increasing
175078,Southwest Minnesota State University,public,Town,"5,000 - 9,999",44.45373,-95.759548,simpson,0.1236296296296296,0.013,Increasing
175272,Winona State University,public,Town,"5,000 - 9,999",44.046159,-91.643723,simpson,0.1257037037037036,0.008,Unchanged
175342,Alcorn State University,public,Rural,"1,000 - 4,999",31.877216,-91.142854,simpson,0.1823333333333332,-0.009,Decreasing
175421,Belhaven University,private_nonprofit,City,"1,000 - 4,999",32.318415,-90.169228,simpson,0.5344444444444441,0.009,Unchanged
175430,Blue Mountain College,private_nonprofit,Rural,"< 1,000",34.67209,-89.02924,simpson,0.1664074074074072,0.005,Unchanged
175616,Delta State University,public,Town,"1,000 - 4,999",33.744745,-90.735365,simpson,0.4712962962962962,0.001,Unchanged
175856,Jackson State University,public,City,"5,000 - 9,999",32.296105,-90.207405,simpson,0.1258148148148148,0.002,Unchanged
175980,Millsaps College,private_nonprofit,City,"< 1,000",32.322746,-90.179957,simpson,0.2117407407407408,0.023,Increasing
176017,University of Mississippi,public,Town,"20,000 +",34.365529,-89.537434,simpson,0.2934814814814812,0.005,Unchanged
176035,Mississippi University for Women,public,Town,"1,000 - 4,999",33.493305,-88.418601,simpson,0.4672222222222221,0.002,Unchanged
176044,Mississippi Valley State University,public,Town,"1,000 - 4,999",33.514142,-90.341274,simpson,0.124037037037037,0.001,Unchanged
176053,Mississippi College,private_nonprofit,Not_Reported,"1,000 - 4,999",32.335515,-90.329821,simpson,0.3417777777777775,0.006,Unchanged
176080,Mississippi State University,public,Town,"20,000 +",33.454852,-88.790139,simpson,0.3266296296296295,0.004,Unchanged
176318,Rust College,private_nonprofit,Town,"< 1,000",34.776862,-89.446999,simpson,0.0423333333333333,-0.004,Unchanged
176372,University of Southern Mississippi,public,City,"10,000 - 19,999",31.32661,-89.331236,simpson,0.429037037037037,0.006,Unchanged
